source,layer,lat,lon,name,addendum_json_vh,addendum_json_georg
swe-virtual-herbarium,socken,56.23611999999999,14.83434,Asarum,"{""District"":""Asarum"",""Province"":""Blekinge"",""Country"":""Sweden"",""Län"":""Blekinge län"",""Kommun"":""Karlshamn"",""Latitude"":56.23612,""Longitude"":14.83434,""Continent"":""Europe"",""ID"":16440,""xmax"":null,""xmin"":null,""ymax"":null,""ymin"":null,""precision"":11334,""RT90centrE"":1439794,""RT90centrN"":6234647,""Code"":""SE-1082""}","{""coordinateUncertaintyInMeters"":11334,""locationDisplayLabel"":""Asarum""}"
swe-virtual-herbarium,socken,56.11156,15.54052,Aspö,"{""District"":""Aspö"",""Province"":""Blekinge"",""Country"":""Sweden"",""Län"":""Blekinge län"",""Kommun"":""Karlskrona"",""Latitude"":56.11156,""Longitude"":15.54052,""Continent"":""Europe"",""ID"":16441,""xmax"":null,""xmin"":null,""ymax"":null,""ymin"":null,""precision"":3977,""RT90centrE"":1483531,""RT90centrN"":6220384,""Code"":""SE-1080""}","{""coordinateUncertaintyInMeters"":3977,""locationDisplayLabel"":""Aspö""}"
swe-virtual-herbarium,socken,56.30975,15.73605,Augerum,"{""District"":""Augerum"",""Province"":""Blekinge"",""Country"":""Sweden"",""Län"":""Blekinge län"",""Kommun"":""Karlskrona"",""Latitude"":56.30975,""Longitude"":15.73605,""Continent"":""Europe"",""ID"":16442,""xmax"":null,""xmin"":null,""ymax"":null,""ymin"":null,""precision"":18179,""RT90centrE"":1495717,""RT90centrN"":6242423,""Code"":""SE-1080""}","{""coordinateUncertaintyInMeters"":18179,""locationDisplayLabel"":""Augerum""}"
swe-virtual-herbarium,socken,56.39116,15.15639,Backaryd,"{""District"":""Backaryd"",""Province"":""Blekinge"",""Country"":""Sweden"",""Län"":""Blekinge län"",""Kommun"":""Ronneby"",""Latitude"":56.39116,""Longitude"":15.15639,""Continent"":""Europe"",""ID"":16443,""xmax"":null,""xmin"":null,""ymax"":null,""ymin"":null,""precision"":9450,""RT90centrE"":1459927,""RT90centrN"":6251674,""Code"":""SE-1081""}","{""coordinateUncertaintyInMeters"":9450,""locationDisplayLabel"":""Backaryd""}"
swe-virtual-herbarium,socken,56.24762,15.108179999999999,Bräkne-Hoby,"{""District"":""Bräkne-Hoby"",""Province"":""Blekinge"",""Country"":""Sweden"",""Län"":""Blekinge län"",""Kommun"":""Ronneby"",""Latitude"":56.24762,""Longitude"":15.10818,""Continent"":""Europe"",""ID"":16444,""xmax"":null,""xmin"":null,""ymax"":null,""ymin"":null,""precision"":15841,""RT90centrE"":1456788,""RT90centrN"":6235720,""Code"":""SE-1081""}","{""coordinateUncertaintyInMeters"":15841,""locationDisplayLabel"":""Bräkne-Hoby""}"
swe-virtual-herbarium,socken,56.22436999999999,15.34777,Edestad,"{""District"":""Edestad"",""Province"":""Blekinge"",""Country"":""Sweden"",""Län"":""Blekinge län"",""Kommun"":""Ronneby"",""Latitude"":56.22437,""Longitude"":15.34777,""Continent"":""Europe"",""ID"":16445,""xmax"":null,""xmin"":null,""ymax"":null,""ymin"":null,""precision"":14412,""RT90centrE"":1471622,""RT90centrN"":6233008,""Code"":""SE-1081""}","{""coordinateUncertaintyInMeters"":14412,""locationDisplayLabel"":""Edestad""}"
swe-virtual-herbarium,socken,56.15726,14.73829,Elleholm,"{""District"":""Elleholm"",""Province"":""Blekinge"",""Country"":""Sweden"",""Län"":""Blekinge län"",""Kommun"":""Karlshamn"",""Latitude"":56.15726,""Longitude"":14.73829,""Continent"":""Europe"",""ID"":16446,""xmax"":null,""xmin"":null,""ymax"":null,""ymin"":null,""precision"":3397,""RT90centrE"":1433701,""RT90centrN"":6225955,""Code"":""SE-1082""}","{""coordinateUncertaintyInMeters"":3397,""locationDisplayLabel"":""Elleholm""}"
swe-virtual-herbarium,socken,56.44067,15.34479,Eringsboda,"{""District"":""Eringsboda"",""Province"":""Blekinge"",""Country"":""Sweden"",""Län"":""Blekinge län"",""Kommun"":""Ronneby"",""Latitude"":56.44067,""Longitude"":15.34479,""Continent"":""Europe"",""ID"":16447,""xmax"":null,""xmin"":null,""ymax"":null,""ymin"":null,""precision"":10099,""RT90centrE"":1471600,""RT90centrN"":6257093,""Code"":""SE-1081""}","{""coordinateUncertaintyInMeters"":10099,""locationDisplayLabel"":""Eringsboda""}"
swe-virtual-herbarium,socken,56.305209999999995,15.54318,Fridlevstad,"{""District"":""Fridlevstad"",""Province"":""Blekinge"",""Country"":""Sweden"",""Län"":""Blekinge län"",""Kommun"":""Karlskrona"",""Latitude"":56.30521,""Longitude"":15.54318,""Continent"":""Europe"",""ID"":16448,""xmax"":null,""xmin"":null,""ymax"":null,""ymin"":null,""precision"":13569,""RT90centrE"":1483778,""RT90centrN"":6241945,""Code"":""SE-1080""}","{""coordinateUncertaintyInMeters"":13569,""locationDisplayLabel"":""Fridlevstad""}"
swe-virtual-herbarium,socken,56.17547,15.463920000000002,Förkärla,"{""District"":""Förkärla"",""Province"":""Blekinge"",""Country"":""Sweden"",""Län"":""Blekinge län"",""Kommun"":""Ronneby"",""Latitude"":56.17547,""Longitude"":15.46392,""Continent"":""Europe"",""ID"":16449,""xmax"":null,""xmin"":null,""ymax"":null,""ymin"":null,""precision"":7512,""RT90centrE"":1478800,""RT90centrN"":6227520,""Code"":""SE-1081""}","{""coordinateUncertaintyInMeters"":7512,""locationDisplayLabel"":""Förkärla""}"
swe-virtual-herbarium,socken,56.14808000000001,14.61664,Gammalstorp,"{""District"":""Gammalstorp"",""Province"":""Blekinge"",""Country"":""Sweden"",""Län"":""Blekinge län"",""Kommun"":""Sölvesborg"",""Latitude"":56.14808,""Longitude"":14.61664,""Continent"":""Europe"",""ID"":16450,""xmax"":null,""xmin"":null,""ymax"":null,""ymin"":null,""precision"":7266,""RT90centrE"":1426126,""RT90centrN"":6225055,""Code"":""SE-1083""}","{""coordinateUncertaintyInMeters"":7266,""locationDisplayLabel"":""Gammalstorp""}"
swe-virtual-herbarium,socken,56.10115,15.4604,Hasslö,"{""District"":""Hasslö"",""Province"":""Blekinge"",""Country"":""Sweden"",""Län"":""Blekinge län"",""Kommun"":""Karlskrona"",""Latitude"":56.10115,""Longitude"":15.4604,""Continent"":""Europe"",""ID"":16451,""xmax"":null,""xmin"":null,""ymax"":null,""ymin"":null,""precision"":4927,""RT90centrE"":1478540,""RT90centrN"":6219247,""Code"":""SE-1080""}","{""coordinateUncertaintyInMeters"":4927,""locationDisplayLabel"":""Hasslö""}"
swe-virtual-herbarium,socken,56.2751,15.39344,Hjortsberga,"{""District"":""Hjortsberga"",""Province"":""Blekinge"",""Country"":""Sweden"",""Län"":""Blekinge län"",""Kommun"":""Ronneby"",""Latitude"":56.2751,""Longitude"":15.39344,""Continent"":""Europe"",""ID"":16452,""xmax"":null,""xmin"":null,""ymax"":null,""ymin"":null,""precision"":10999,""RT90centrE"":1474490,""RT90centrN"":6238639,""Code"":""SE-1081""}","{""coordinateUncertaintyInMeters"":10999,""locationDisplayLabel"":""Hjortsberga""}"
swe-virtual-herbarium,socken,56.21394,14.95099,Hällaryd,"{""District"":""Hällaryd"",""Province"":""Blekinge"",""Country"":""Sweden"",""Län"":""Blekinge län"",""Kommun"":""Karlshamn"",""Latitude"":56.21394,""Longitude"":14.95099,""Continent"":""Europe"",""ID"":16453,""xmax"":null,""xmin"":null,""ymax"":null,""ymin"":null,""precision"":14709,""RT90centrE"":1446997,""RT90centrN"":6232080,""Code"":""SE-1082""}","{""coordinateUncertaintyInMeters"":14709,""locationDisplayLabel"":""Hällaryd""}"
swe-virtual-herbarium,socken,56.21856,15.871879999999999,Jämjö,"{""District"":""Jämjö"",""Province"":""Blekinge"",""Country"":""Sweden"",""Län"":""Blekinge län"",""Kommun"":""Karlskrona"",""Latitude"":56.21856,""Longitude"":15.87188,""Continent"":""Europe"",""ID"":16454,""xmax"":null,""xmin"":null,""ymax"":null,""ymin"":null,""precision"":9533,""RT90centrE"":1504134,""RT90centrN"":6232267,""Code"":""SE-1080""}","{""coordinateUncertaintyInMeters"":9533,""locationDisplayLabel"":""Jämjö""}"
swe-virtual-herbarium,socken,56.26964,14.558860000000001,Jämshög,"{""District"":""Jämshög"",""Province"":""Blekinge"",""Country"":""Sweden"",""Län"":""Blekinge län"",""Kommun"":""Olofström"",""Latitude"":56.26964,""Longitude"":14.55886,""Continent"":""Europe"",""ID"":16455,""xmax"":null,""xmin"":null,""ymax"":null,""ymin"":null,""precision"":13710,""RT90centrE"":1422779,""RT90centrN"":6238653,""Code"":""SE-1060""}","{""coordinateUncertaintyInMeters"":13710,""locationDisplayLabel"":""Jämshög""}"
swe-virtual-herbarium,socken,56.15837,14.86326,Karlshamn,"{""District"":""Karlshamn"",""Province"":""Blekinge"",""Country"":""Sweden"",""Län"":""Blekinge län"",""Kommun"":""Karlshamn"",""Latitude"":56.15837,""Longitude"":14.86326,""Continent"":""Europe"",""ID"":16456,""xmax"":null,""xmin"":null,""ymax"":null,""ymin"":null,""precision"":4004,""RT90centrE"":1441469,""RT90centrN"":6225964,""Code"":""SE-1082""}","{""coordinateUncertaintyInMeters"":4004,""locationDisplayLabel"":""Karlshamn""}"
swe-virtual-herbarium,socken,56.1707,15.593639999999999,Karlskrona,"{""District"":""Karlskrona"",""Province"":""Blekinge"",""Country"":""Sweden"",""Län"":""Blekinge län"",""Kommun"":""Karlskrona"",""Latitude"":56.1707,""Longitude"":15.59364,""Continent"":""Europe"",""ID"":16457,""xmax"":null,""xmin"":null,""ymax"":null,""ymin"":null,""precision"":10816,""RT90centrE"":1486855,""RT90centrN"":6226957,""Code"":""SE-1080""}","{""coordinateUncertaintyInMeters"":10816,""locationDisplayLabel"":""Karlskrona""}"
swe-virtual-herbarium,socken,56.268409999999996,16.00265,Kristianopel,"{""District"":""Kristianopel"",""Province"":""Blekinge"",""Country"":""Sweden"",""Län"":""Blekinge län"",""Kommun"":""Karlskrona"",""Latitude"":56.26841,""Longitude"":16.00265,""Continent"":""Europe"",""ID"":16458,""xmax"":null,""xmin"":null,""ymax"":null,""ymin"":null,""precision"":14291,""RT90centrE"":1512231,""RT90centrN"":6237834,""Code"":""SE-1080""}","{""coordinateUncertaintyInMeters"":14291,""locationDisplayLabel"":""Kristianopel""}"
swe-virtual-herbarium,socken,56.36929,14.567520000000002,Kyrkhult,"{""District"":""Kyrkhult"",""Province"":""Blekinge"",""Country"":""Sweden"",""Län"":""Blekinge län"",""Kommun"":""Olofström"",""Latitude"":56.36929,""Longitude"":14.56752,""Continent"":""Europe"",""ID"":16459,""xmax"":null,""xmin"":null,""ymax"":null,""ymin"":null,""precision"":13610,""RT90centrE"":1423516,""RT90centrN"":6249739,""Code"":""SE-1060""}","{""coordinateUncertaintyInMeters"":13610,""locationDisplayLabel"":""Kyrkhult""}"
swe-virtual-herbarium,socken,56.14493,15.36684,Listerby,"{""District"":""Listerby"",""Province"":""Blekinge"",""Country"":""Sweden"",""Län"":""Blekinge län"",""Kommun"":""Ronneby"",""Latitude"":56.14493,""Longitude"":15.36684,""Continent"":""Europe"",""ID"":16460,""xmax"":null,""xmin"":null,""ymax"":null,""ymin"":null,""precision"":14362,""RT90centrE"":1472750,""RT90centrN"":6224155,""Code"":""SE-1081""}","{""coordinateUncertaintyInMeters"":14362,""locationDisplayLabel"":""Listerby""}"
swe-virtual-herbarium,socken,56.19327,15.693539999999999,Lösen,"{""District"":""Lösen"",""Province"":""Blekinge"",""Country"":""Sweden"",""Län"":""Blekinge län"",""Kommun"":""Karlskrona"",""Latitude"":56.19327,""Longitude"":15.69354,""Continent"":""Europe"",""ID"":16461,""xmax"":null,""xmin"":null,""ymax"":null,""ymin"":null,""precision"":14332,""RT90centrE"":1493066,""RT90centrN"":6229455,""Code"":""SE-1080""}","{""coordinateUncertaintyInMeters"":14332,""locationDisplayLabel"":""Lösen""}"
swe-virtual-herbarium,socken,56.03604,14.68635,Mjällby,"{""District"":""Mjällby"",""Province"":""Blekinge"",""Country"":""Sweden"",""Län"":""Blekinge län"",""Kommun"":""Sölvesborg"",""Latitude"":56.03604,""Longitude"":14.68635,""Continent"":""Europe"",""ID"":16462,""xmax"":null,""xmin"":null,""ymax"":null,""ymin"":null,""precision"":11513,""RT90centrE"":1430255,""RT90centrN"":6212509,""Code"":""SE-1083""}","{""coordinateUncertaintyInMeters"":11513,""locationDisplayLabel"":""Mjällby""}"
swe-virtual-herbarium,socken,56.20336999999999,14.726020000000002,Mörrum,"{""District"":""Mörrum"",""Province"":""Blekinge"",""Country"":""Sweden"",""Län"":""Blekinge län"",""Kommun"":""Karlshamn"",""Latitude"":56.20337,""Longitude"":14.72602,""Continent"":""Europe"",""ID"":16463,""xmax"":null,""xmin"":null,""ymax"":null,""ymin"":null,""precision"":6827,""RT90centrE"":1433020,""RT90centrN"":6231100,""Code"":""SE-1082""}","{""coordinateUncertaintyInMeters"":6827,""locationDisplayLabel"":""Mörrum""}"
swe-virtual-herbarium,socken,56.20285,15.53645,Nättraby,"{""District"":""Nättraby"",""Province"":""Blekinge"",""Country"":""Sweden"",""Län"":""Blekinge län"",""Kommun"":""Karlskrona"",""Latitude"":56.20285,""Longitude"":15.53645,""Continent"":""Europe"",""ID"":16464,""xmax"":null,""xmin"":null,""ymax"":null,""ymin"":null,""precision"":12243,""RT90centrE"":1483317,""RT90centrN"":6230550,""Code"":""SE-1080""}","{""coordinateUncertaintyInMeters"":12243,""locationDisplayLabel"":""Nättraby""}"
swe-virtual-herbarium,socken,56.199659999999994,15.77685,Ramdala,"{""District"":""Ramdala"",""Province"":""Blekinge"",""Country"":""Sweden"",""Län"":""Blekinge län"",""Kommun"":""Karlskrona"",""Latitude"":56.19966,""Longitude"":15.77685,""Continent"":""Europe"",""ID"":16465,""xmax"":null,""xmin"":null,""ymax"":null,""ymin"":null,""precision"":14465,""RT90centrE"":1498238,""RT90centrN"":6230162,""Code"":""SE-1080""}","{""coordinateUncertaintyInMeters"":14465,""locationDisplayLabel"":""Ramdala""}"
swe-virtual-herbarium,socken,56.33849,14.81321,Ringamåla,"{""District"":""Ringamåla"",""Province"":""Blekinge"",""Country"":""Sweden"",""Län"":""Blekinge län"",""Kommun"":""Karlshamn"",""Latitude"":56.33849,""Longitude"":14.81321,""Continent"":""Europe"",""ID"":16466,""xmax"":null,""xmin"":null,""ymax"":null,""ymin"":null,""precision"":10413,""RT90centrE"":1438648,""RT90centrN"":6246064,""Code"":""SE-1082""}","{""coordinateUncertaintyInMeters"":10413,""locationDisplayLabel"":""Ringamåla""}"
swe-virtual-herbarium,socken,56.24794,15.249920000000001,Ronneby,"{""District"":""Ronneby"",""Province"":""Blekinge"",""Country"":""Sweden"",""Län"":""Blekinge län"",""Kommun"":""Ronneby"",""Latitude"":56.24794,""Longitude"":15.24992,""Continent"":""Europe"",""ID"":16467,""xmax"":null,""xmin"":null,""ymax"":null,""ymin"":null,""precision"":17505,""RT90centrE"":1465575,""RT90centrN"":6235677,""Code"":""SE-1081""}","{""coordinateUncertaintyInMeters"":17505,""locationDisplayLabel"":""Ronneby""}"
swe-virtual-herbarium,socken,56.32325,15.653429999999998,Rödeby,"{""District"":""Rödeby"",""Province"":""Blekinge"",""Country"":""Sweden"",""Län"":""Blekinge län"",""Kommun"":""Karlskrona"",""Latitude"":56.32325,""Longitude"":15.65343,""Continent"":""Europe"",""ID"":16468,""xmax"":null,""xmin"":null,""ymax"":null,""ymin"":null,""precision"":13157,""RT90centrE"":1490607,""RT90centrN"":6243934,""Code"":""SE-1080""}","{""coordinateUncertaintyInMeters"":13157,""locationDisplayLabel"":""Rödeby""}"
swe-virtual-herbarium,socken,56.436519999999994,15.566120000000002,Sillhövda,"{""District"":""Sillhövda"",""Province"":""Blekinge"",""Country"":""Sweden"",""Län"":""Blekinge län"",""Kommun"":""Karlskrona"",""Latitude"":56.43652,""Longitude"":15.56612,""Continent"":""Europe"",""ID"":16469,""xmax"":null,""xmin"":null,""ymax"":null,""ymin"":null,""precision"":8247,""RT90centrE"":1485250,""RT90centrN"":6256561,""Code"":""SE-1080""}","{""coordinateUncertaintyInMeters"":8247,""locationDisplayLabel"":""Sillhövda""}"
swe-virtual-herbarium,socken,56.08456999999999,15.68605,Sturkö,"{""District"":""Sturkö"",""Province"":""Blekinge"",""Country"":""Sweden"",""Län"":""Blekinge län"",""Kommun"":""Karlskrona"",""Latitude"":56.08457,""Longitude"":15.68605,""Continent"":""Europe"",""ID"":16470,""xmax"":null,""xmin"":null,""ymax"":null,""ymin"":null,""precision"":6596,""RT90centrE"":1492580,""RT90centrN"":6217354,""Code"":""SE-1080""}","{""coordinateUncertaintyInMeters"":6596,""locationDisplayLabel"":""Sturkö""}"
swe-virtual-herbarium,socken,56.0362,14.57337,Sölvesborg,"{""District"":""Sölvesborg"",""Province"":""Blekinge"",""Country"":""Sweden"",""Län"":""Blekinge län"",""Kommun"":""Sölvesborg"",""Latitude"":56.0362,""Longitude"":14.57337,""Continent"":""Europe"",""ID"":16471,""xmax"":null,""xmin"":null,""ymax"":null,""ymin"":null,""precision"":12795,""RT90centrE"":1423214,""RT90centrN"":6212646,""Code"":""SE-1083""}","{""coordinateUncertaintyInMeters"":12795,""locationDisplayLabel"":""Sölvesborg""}"
swe-virtual-herbarium,socken,56.10886,15.61466,Tjurkö,"{""District"":""Tjurkö"",""Province"":""Blekinge"",""Country"":""Sweden"",""Län"":""Blekinge län"",""Kommun"":""Karlskrona"",""Latitude"":56.10886,""Longitude"":15.61466,""Continent"":""Europe"",""ID"":16472,""xmax"":null,""xmin"":null,""ymax"":null,""ymin"":null,""precision"":5342,""RT90centrE"":1488143,""RT90centrN"":6220067,""Code"":""SE-1080""}","{""coordinateUncertaintyInMeters"":5342,""locationDisplayLabel"":""Tjurkö""}"
swe-virtual-herbarium,socken,56.10436,15.84552,Torhamn,"{""District"":""Torhamn"",""Province"":""Blekinge"",""Country"":""Sweden"",""Län"":""Blekinge län"",""Kommun"":""Karlskrona"",""Latitude"":56.10436,""Longitude"":15.84552,""Continent"":""Europe"",""ID"":16473,""xmax"":null,""xmin"":null,""ymax"":null,""ymin"":null,""precision"":20090,""RT90centrE"":1502506,""RT90centrN"":6219552,""Code"":""SE-1080""}","{""coordinateUncertaintyInMeters"":20090,""locationDisplayLabel"":""Torhamn""}"
swe-virtual-herbarium,socken,56.36008,15.43099,Tving,"{""District"":""Tving"",""Province"":""Blekinge"",""Country"":""Sweden"",""Län"":""Blekinge län"",""Kommun"":""Karlskrona"",""Latitude"":56.36008,""Longitude"":15.43099,""Continent"":""Europe"",""ID"":16474,""xmax"":null,""xmin"":null,""ymax"":null,""ymin"":null,""precision"":10352,""RT90centrE"":1476868,""RT90centrN"":6248088,""Code"":""SE-1080""}","{""coordinateUncertaintyInMeters"":10352,""locationDisplayLabel"":""Tving""}"
swe-virtual-herbarium,socken,56.11277,14.68469,Ysane,"{""District"":""Ysane"",""Province"":""Blekinge"",""Country"":""Sweden"",""Län"":""Blekinge län"",""Kommun"":""Sölvesborg"",""Latitude"":56.11277,""Longitude"":14.68469,""Continent"":""Europe"",""ID"":16475,""xmax"":null,""xmin"":null,""ymax"":null,""ymin"":null,""precision"":6529,""RT90centrE"":1430291,""RT90centrN"":6221053,""Code"":""SE-1083""}","{""coordinateUncertaintyInMeters"":6529,""locationDisplayLabel"":""Ysane""}"
swe-virtual-herbarium,socken,56.25317,15.00794,Åryd,"{""District"":""Åryd"",""Province"":""Blekinge"",""Country"":""Sweden"",""Län"":""Blekinge län"",""Kommun"":""Karlshamn"",""Latitude"":56.25317,""Longitude"":15.00794,""Continent"":""Europe"",""ID"":16476,""xmax"":null,""xmin"":null,""ymax"":null,""ymin"":null,""precision"":13615,""RT90centrE"":1450580,""RT90centrN"":6236406,""Code"":""SE-1082""}","{""coordinateUncertaintyInMeters"":13615,""locationDisplayLabel"":""Åryd""}"
swe-virtual-herbarium,socken,56.39128,15.030479999999999,Öljehult,"{""District"":""Öljehult"",""Province"":""Blekinge"",""Country"":""Sweden"",""Län"":""Blekinge län"",""Kommun"":""Ronneby"",""Latitude"":56.39128,""Longitude"":15.03048,""Continent"":""Europe"",""ID"":16477,""xmax"":null,""xmin"":null,""ymax"":null,""ymin"":null,""precision"":7452,""RT90centrE"":1452150,""RT90centrN"":6251769,""Code"":""SE-1081""}","{""coordinateUncertaintyInMeters"":7452,""locationDisplayLabel"":""Öljehult""}"
swe-virtual-herbarium,socken,58.380359999999996,11.2691,Askum,"{""District"":""Askum"",""Province"":""Bohuslän"",""Country"":""Sweden"",""Län"":""Västra Götalands län"",""Kommun"":""Sotenäs"",""Latitude"":58.38036,""Longitude"":11.2691,""Continent"":""Europe"",""ID"":16478,""xmax"":null,""xmin"":null,""ymax"":null,""ymin"":null,""precision"":10728,""RT90centrE"":1234742,""RT90centrN"":6481969,""Code"":""SE-1427""}","{""coordinateUncertaintyInMeters"":10728,""locationDisplayLabel"":""Askum""}"
swe-virtual-herbarium,socken,57.749080000000006,11.96984,Backa,"{""District"":""Backa"",""Province"":""Bohuslän"",""Country"":""Sweden"",""Län"":""Västra Götalands län"",""Kommun"":""Göteborg"",""Latitude"":57.74908,""Longitude"":11.96984,""Continent"":""Europe"",""ID"":16479,""xmax"":null,""xmin"":null,""ymax"":null,""ymin"":null,""precision"":null,""RT90centrE"":null,""RT90centrN"":null,""Code"":""SE-1480""}","{""coordinateUncertaintyInMeters"":null,""locationDisplayLabel"":""Backa""}"
swe-virtual-herbarium,socken,57.75533000000001,11.81315,Björlanda,"{""District"":""Björlanda"",""Province"":""Bohuslän"",""Country"":""Sweden"",""Län"":""Västra Götalands län"",""Kommun"":""Göteborg"",""Latitude"":57.75533,""Longitude"":11.81315,""Continent"":""Europe"",""ID"":16480,""xmax"":null,""xmin"":null,""ymax"":null,""ymin"":null,""precision"":6019,""RT90centrE"":1262412,""RT90centrN"":6410409,""Code"":""SE-1480""}","{""coordinateUncertaintyInMeters"":6019,""locationDisplayLabel"":""Björlanda""}"
swe-virtual-herbarium,socken,58.29179,11.59587,Bokenäs,"{""District"":""Bokenäs"",""Province"":""Bohuslän"",""Country"":""Sweden"",""Län"":""Västra Götalands län"",""Kommun"":""Uddevalla"",""Latitude"":58.29179,""Longitude"":11.59587,""Continent"":""Europe"",""ID"":16481,""xmax"":null,""xmin"":null,""ymax"":null,""ymin"":null,""precision"":6289,""RT90centrE"":1253217,""RT90centrN"":6470872,""Code"":""SE-1485""}","{""coordinateUncertaintyInMeters"":6289,""locationDisplayLabel"":""Bokenäs""}"
swe-virtual-herbarium,socken,58.511590000000005,11.40092,Bottna,"{""District"":""Bottna"",""Province"":""Bohuslän"",""Country"":""Sweden"",""Län"":""Västra Götalands län"",""Kommun"":""Tanum"",""Latitude"":58.51159,""Longitude"":11.40092,""Continent"":""Europe"",""ID"":16482,""xmax"":null,""xmin"":null,""ymax"":null,""ymin"":null,""precision"":4709,""RT90centrE"":1243402,""RT90centrN"":6496055,""Code"":""SE-1435""}","{""coordinateUncertaintyInMeters"":4709,""locationDisplayLabel"":""Bottna""}"
swe-virtual-herbarium,socken,58.38621,11.52249,Brastad,"{""District"":""Brastad"",""Province"":""Bohuslän"",""Country"":""Sweden"",""Län"":""Västra Götalands län"",""Kommun"":""Lysekil"",""Latitude"":58.38621,""Longitude"":11.52249,""Continent"":""Europe"",""ID"":16483,""xmax"":null,""xmin"":null,""ymax"":null,""ymin"":null,""precision"":6369,""RT90centrE"":1249588,""RT90centrN"":6481649,""Code"":""SE-1484""}","{""coordinateUncertaintyInMeters"":6369,""locationDisplayLabel"":""Brastad""}"
swe-virtual-herbarium,socken,58.42252,11.471860000000001,Bro,"{""District"":""Bro"",""Province"":""Bohuslän"",""Country"":""Sweden"",""Län"":""Västra Götalands län"",""Kommun"":""Lysekil"",""Latitude"":58.42252,""Longitude"":11.47186,""Continent"":""Europe"",""ID"":16484,""xmax"":null,""xmin"":null,""ymax"":null,""ymin"":null,""precision"":13652,""RT90centrE"":1246892,""RT90centrN"":6485876,""Code"":""SE-1484""}","{""coordinateUncertaintyInMeters"":13652,""locationDisplayLabel"":""Bro""}"
swe-virtual-herbarium,socken,58.506730000000005,11.477089999999999,Bärfendal,"{""District"":""Bärfendal"",""Province"":""Bohuslän"",""Country"":""Sweden"",""Län"":""Västra Götalands län"",""Kommun"":""Munkedal"",""Latitude"":58.50673,""Longitude"":11.47709,""Continent"":""Europe"",""ID"":16485,""xmax"":null,""xmin"":null,""ymax"":null,""ymin"":null,""precision"":4002,""RT90centrE"":1247802,""RT90centrN"":6495225,""Code"":""SE-1430""}","{""coordinateUncertaintyInMeters"":4002,""locationDisplayLabel"":""Bärfendal""}"
swe-virtual-herbarium,socken,58.25631,11.53357,Dragsmark,"{""District"":""Dragsmark"",""Province"":""Bohuslän"",""Country"":""Sweden"",""Län"":""Västra Götalands län"",""Kommun"":""Uddevalla"",""Latitude"":58.25631,""Longitude"":11.53357,""Continent"":""Europe"",""ID"":16486,""xmax"":null,""xmin"":null,""ymax"":null,""ymin"":null,""precision"":4091,""RT90centrE"":1249318,""RT90centrN"":6467156,""Code"":""SE-1485""}","{""coordinateUncertaintyInMeters"":4091,""locationDisplayLabel"":""Dragsmark""}"
swe-virtual-herbarium,socken,58.28722,11.949110000000001,Forshälla,"{""District"":""Forshälla"",""Province"":""Bohuslän"",""Country"":""Sweden"",""Län"":""Västra Götalands län"",""Kommun"":""Uddevalla"",""Latitude"":58.28722,""Longitude"":11.94911,""Continent"":""Europe"",""ID"":16487,""xmax"":null,""xmin"":null,""ymax"":null,""ymin"":null,""precision"":11107,""RT90centrE"":1273883,""RT90centrN"":6469122,""Code"":""SE-1485""}","{""coordinateUncertaintyInMeters"":11107,""locationDisplayLabel"":""Forshälla""}"
swe-virtual-herbarium,socken,58.463269999999994,11.68419,Foss,"{""District"":""Foss"",""Province"":""Bohuslän"",""Country"":""Sweden"",""Län"":""Västra Götalands län"",""Kommun"":""Munkedal"",""Latitude"":58.46327,""Longitude"":11.68419,""Continent"":""Europe"",""ID"":16488,""xmax"":null,""xmin"":null,""ymax"":null,""ymin"":null,""precision"":8580,""RT90centrE"":1259563,""RT90centrN"":6489630,""Code"":""SE-1430""}","{""coordinateUncertaintyInMeters"":8580,""locationDisplayLabel"":""Foss""}"
swe-virtual-herbarium,socken,58.188790000000004,11.97033,Grinneröd,"{""District"":""Grinneröd"",""Province"":""Bohuslän"",""Country"":""Sweden"",""Län"":""Västra Götalands län"",""Kommun"":""Uddevalla"",""Latitude"":58.18879,""Longitude"":11.97033,""Continent"":""Europe"",""ID"":16489,""xmax"":null,""xmin"":null,""ymax"":null,""ymin"":null,""precision"":6121,""RT90centrE"":1274503,""RT90centrN"":6458099,""Code"":""SE-1485""}","{""coordinateUncertaintyInMeters"":6121,""locationDisplayLabel"":""Grinneröd""}"
swe-virtual-herbarium,socken,58.160030000000006,11.37502,Gullholmen,"{""District"":""Gullholmen"",""Province"":""Bohuslän"",""Country"":""Sweden"",""Län"":""Västra Götalands län"",""Kommun"":""Orust"",""Latitude"":58.16003,""Longitude"":11.37502,""Continent"":""Europe"",""ID"":16490,""xmax"":null,""xmin"":null,""ymax"":null,""ymin"":null,""precision"":4582,""RT90centrE"":1238654,""RT90centrN"":6457156,""Code"":""SE-1421""}","{""coordinateUncertaintyInMeters"":4582,""locationDisplayLabel"":""Gullholmen""}"
swe-virtual-herbarium,socken,57.81239,11.8278,Harestad,"{""District"":""Harestad"",""Province"":""Bohuslän"",""Country"":""Sweden"",""Län"":""Västra Götalands län"",""Kommun"":""Kungälv"",""Latitude"":57.81239,""Longitude"":11.8278,""Continent"":""Europe"",""ID"":16491,""xmax"":null,""xmin"":null,""ymax"":null,""ymin"":null,""precision"":4416,""RT90centrE"":1263657,""RT90centrN"":6416707,""Code"":""SE-1482""}","{""coordinateUncertaintyInMeters"":4416,""locationDisplayLabel"":""Harestad""}"
swe-virtual-herbarium,socken,58.57696,11.75181,Hede,"{""District"":""Hede"",""Province"":""Bohuslän"",""Country"":""Sweden"",""Län"":""Västra Götalands län"",""Kommun"":""Munkedal"",""Latitude"":58.57696,""Longitude"":11.75181,""Continent"":""Europe"",""ID"":16492,""xmax"":null,""xmin"":null,""ymax"":null,""ymin"":null,""precision"":6578,""RT90centrE"":1264269,""RT90centrN"":6502039,""Code"":""SE-1430""}","{""coordinateUncertaintyInMeters"":6578,""locationDisplayLabel"":""Hede""}"
swe-virtual-herbarium,socken,58.37229,11.82594,Herrestad,"{""District"":""Herrestad"",""Province"":""Bohuslän"",""Country"":""Sweden"",""Län"":""Västra Götalands län"",""Kommun"":""Uddevalla"",""Latitude"":58.37229,""Longitude"":11.82594,""Continent"":""Europe"",""ID"":16493,""xmax"":null,""xmin"":null,""ymax"":null,""ymin"":null,""precision"":12434,""RT90centrE"":1267227,""RT90centrN"":6479008,""Code"":""SE-1485""}","{""coordinateUncertaintyInMeters"":12434,""locationDisplayLabel"":""Herrestad""}"
swe-virtual-herbarium,socken,58.2055,12.09315,Hjärtum,"{""District"":""Hjärtum"",""Province"":""Bohuslän"",""Country"":""Sweden"",""Län"":""Västra Götalands län"",""Kommun"":""Lilla Edet"",""Latitude"":58.2055,""Longitude"":12.09315,""Continent"":""Europe"",""ID"":16494,""xmax"":null,""xmin"":null,""ymax"":null,""ymin"":null,""precision"":11839,""RT90centrE"":1281823,""RT90centrN"":6459554,""Code"":""SE-1462""}","{""coordinateUncertaintyInMeters"":11839,""locationDisplayLabel"":""Hjärtum""}"
swe-virtual-herbarium,socken,59.03731,11.19767,Hogdal,"{""District"":""Hogdal"",""Province"":""Bohuslän"",""Country"":""Sweden"",""Län"":""Västra Götalands län"",""Kommun"":""Strömstad"",""Latitude"":59.03731,""Longitude"":11.19767,""Continent"":""Europe"",""ID"":16495,""xmax"":null,""xmin"":null,""ymax"":null,""ymin"":null,""precision"":9658,""RT90centrE"":1235603,""RT90centrN"":6555322,""Code"":""SE-1486""}","{""coordinateUncertaintyInMeters"":9658,""locationDisplayLabel"":""Hogdal""}"
swe-virtual-herbarium,socken,58.5096,11.62472,Håby,"{""District"":""Håby"",""Province"":""Bohuslän"",""Country"":""Sweden"",""Län"":""Västra Götalands län"",""Kommun"":""Munkedal"",""Latitude"":58.5096,""Longitude"":11.62472,""Continent"":""Europe"",""ID"":16496,""xmax"":null,""xmin"":null,""ymax"":null,""ymin"":null,""precision"":5643,""RT90centrE"":1256417,""RT90centrN"":6494999,""Code"":""SE-1430""}","{""coordinateUncertaintyInMeters"":5643,""locationDisplayLabel"":""Håby""}"
swe-virtual-herbarium,socken,57.894040000000004,11.821539999999999,Hålta,"{""District"":""Hålta"",""Province"":""Bohuslän"",""Country"":""Sweden"",""Län"":""Västra Götalands län"",""Kommun"":""Kungälv"",""Latitude"":57.89404,""Longitude"":11.82154,""Continent"":""Europe"",""ID"":16497,""xmax"":null,""xmin"":null,""ymax"":null,""ymin"":null,""precision"":4984,""RT90centrE"":1263821,""RT90centrN"":6425814,""Code"":""SE-1482""}","{""coordinateUncertaintyInMeters"":4984,""locationDisplayLabel"":""Hålta""}"
swe-virtual-herbarium,socken,58.323840000000004,11.697980000000001,Högås,"{""District"":""Högås"",""Province"":""Bohuslän"",""Country"":""Sweden"",""Län"":""Västra Götalands län"",""Kommun"":""Uddevalla"",""Latitude"":58.32384,""Longitude"":11.69798,""Continent"":""Europe"",""ID"":16498,""xmax"":null,""xmin"":null,""ymax"":null,""ymin"":null,""precision"":4584,""RT90centrE"":1259418,""RT90centrN"":6474068,""Code"":""SE-1485""}","{""coordinateUncertaintyInMeters"":4584,""locationDisplayLabel"":""Högås""}"
swe-virtual-herbarium,socken,57.98718,11.86409,Jörlanda,"{""District"":""Jörlanda"",""Province"":""Bohuslän"",""Country"":""Sweden"",""Län"":""Västra Götalands län"",""Kommun"":""Stenungsund"",""Latitude"":57.98718,""Longitude"":11.86409,""Continent"":""Europe"",""ID"":16499,""xmax"":null,""xmin"":null,""ymax"":null,""ymin"":null,""precision"":8182,""RT90centrE"":1266948,""RT90centrN"":6436028,""Code"":""SE-1415""}","{""coordinateUncertaintyInMeters"":8182,""locationDisplayLabel"":""Jörlanda""}"
swe-virtual-herbarium,socken,57.91203,11.933860000000001,Kareby,"{""District"":""Kareby"",""Province"":""Bohuslän"",""Country"":""Sweden"",""Län"":""Västra Götalands län"",""Kommun"":""Kungälv"",""Latitude"":57.91203,""Longitude"":11.93386,""Continent"":""Europe"",""ID"":16500,""xmax"":null,""xmin"":null,""ymax"":null,""ymin"":null,""precision"":5536,""RT90centrE"":1270590,""RT90centrN"":6427427,""Code"":""SE-1482""}","{""coordinateUncertaintyInMeters"":5536,""locationDisplayLabel"":""Kareby""}"
swe-virtual-herbarium,socken,57.943630000000006,11.537989999999999,Klädesholmen,"{""District"":""Klädesholmen"",""Province"":""Bohuslän"",""Country"":""Sweden"",""Län"":""Västra Götalands län"",""Kommun"":""Tjörn"",""Latitude"":57.94363,""Longitude"":11.53799,""Continent"":""Europe"",""ID"":16501,""xmax"":null,""xmin"":null,""ymax"":null,""ymin"":null,""precision"":5548,""RT90centrE"":1244138,""RT90centrN"":6430207,""Code"":""SE-1419""}","{""coordinateUncertaintyInMeters"":5548,""locationDisplayLabel"":""Klädesholmen""}"
swe-virtual-herbarium,socken,58.029990000000005,11.52318,Klövedal,"{""District"":""Klövedal"",""Province"":""Bohuslän"",""Country"":""Sweden"",""Län"":""Västra Götalands län"",""Kommun"":""Tjörn"",""Latitude"":58.02999,""Longitude"":11.52318,""Continent"":""Europe"",""ID"":16502,""xmax"":null,""xmin"":null,""ymax"":null,""ymin"":null,""precision"":7261,""RT90centrE"":1247107,""RT90centrN"":6442018,""Code"":""SE-1419""}","{""coordinateUncertaintyInMeters"":7261,""locationDisplayLabel"":""Klövedal""}"
swe-virtual-herbarium,socken,58.69758,11.76138,Krokstad,"{""District"":""Krokstad"",""Province"":""Bohuslän"",""Country"":""Sweden"",""Län"":""Västra Götalands län"",""Kommun"":""Munkedal"",""Latitude"":58.69758,""Longitude"":11.76138,""Continent"":""Europe"",""ID"":16503,""xmax"":null,""xmin"":null,""ymax"":null,""ymin"":null,""precision"":13537,""RT90centrE"":1265636,""RT90centrN"":6515425,""Code"":""SE-1430""}","{""coordinateUncertaintyInMeters"":13537,""locationDisplayLabel"":""Krokstad""}"
swe-virtual-herbarium,socken,57.871269999999996,11.98884,Kungälv,"{""District"":""Kungälv"",""Province"":""Bohuslän"",""Country"":""Sweden"",""Län"":""Västra Götalands län"",""Kommun"":""Kungälv"",""Latitude"":57.87127,""Longitude"":11.98884,""Continent"":""Europe"",""ID"":16504,""xmax"":null,""xmin"":null,""ymax"":null,""ymin"":null,""precision"":2440,""RT90centrE"":1273591,""RT90centrN"":6422707,""Code"":""SE-1482""}","{""coordinateUncertaintyInMeters"":2440,""locationDisplayLabel"":""Kungälv""}"
swe-virtual-herbarium,socken,58.58563,11.281089999999999,Kville,"{""District"":""Kville"",""Province"":""Bohuslän"",""Country"":""Sweden"",""Län"":""Västra Götalands län"",""Kommun"":""Tanum"",""Latitude"":58.58563,""Longitude"":11.28109,""Continent"":""Europe"",""ID"":16505,""xmax"":null,""xmin"":null,""ymax"":null,""ymin"":null,""precision"":18748,""RT90centrE"":1235473,""RT90centrN"":6504274,""Code"":""SE-1435""}","{""coordinateUncertaintyInMeters"":18748,""locationDisplayLabel"":""Kville""}"
swe-virtual-herbarium,socken,58.1066,11.35636,Käringön,"{""District"":""Käringön"",""Province"":""Bohuslän"",""Country"":""Sweden"",""Län"":""Västra Götalands län"",""Kommun"":""Orust"",""Latitude"":58.1066,""Longitude"":11.35636,""Continent"":""Europe"",""ID"":16506,""xmax"":null,""xmin"":null,""ymax"":null,""ymin"":null,""precision"":4398,""RT90centrE"":1237826,""RT90centrN"":6451178,""Code"":""SE-1421""}","{""coordinateUncertaintyInMeters"":4398,""locationDisplayLabel"":""Käringön""}"
swe-virtual-herbarium,socken,58.40065,12.049719999999999,Lane-Ryr,"{""District"":""Lane-Ryr"",""Province"":""Bohuslän"",""Country"":""Sweden"",""Län"":""Västra Götalands län"",""Kommun"":""Uddevalla"",""Latitude"":58.40065,""Longitude"":12.04972,""Continent"":""Europe"",""ID"":16507,""xmax"":null,""xmin"":null,""ymax"":null,""ymin"":null,""precision"":7244,""RT90centrE"":1280484,""RT90centrN"":6481412,""Code"":""SE-1485""}","{""coordinateUncertaintyInMeters"":7244,""locationDisplayLabel"":""Lane-Ryr""}"
swe-virtual-herbarium,socken,58.21171999999999,11.9221,Ljung,"{""District"":""Ljung"",""Province"":""Bohuslän"",""Country"":""Sweden"",""Län"":""Västra Götalands län"",""Kommun"":""Uddevalla"",""Latitude"":58.21172,""Longitude"":11.9221,""Continent"":""Europe"",""ID"":16508,""xmax"":null,""xmin"":null,""ymax"":null,""ymin"":null,""precision"":7263,""RT90centrE"":1271816,""RT90centrN"":6460814,""Code"":""SE-1485""}","{""coordinateUncertaintyInMeters"":7263,""locationDisplayLabel"":""Ljung""}"
swe-virtual-herbarium,socken,59.076,11.332939999999999,Lommeland,"{""District"":""Lommeland"",""Province"":""Bohuslän"",""Country"":""Sweden"",""Län"":""Västra Götalands län"",""Kommun"":""Strömstad"",""Latitude"":59.076,""Longitude"":11.33294,""Continent"":""Europe"",""ID"":16509,""xmax"":null,""xmin"":null,""ymax"":null,""ymin"":null,""precision"":4445,""RT90centrE"":1243646,""RT90centrN"":6559098,""Code"":""SE-1486""}","{""coordinateUncertaintyInMeters"":4445,""locationDisplayLabel"":""Lommeland""}"
swe-virtual-herbarium,socken,58.81661999999999,11.34341,Lur,"{""District"":""Lur"",""Province"":""Bohuslän"",""Country"":""Sweden"",""Län"":""Västra Götalands län"",""Kommun"":""Tanum"",""Latitude"":58.81662,""Longitude"":11.34341,""Continent"":""Europe"",""ID"":16510,""xmax"":null,""xmin"":null,""ymax"":null,""ymin"":null,""precision"":11599,""RT90centrE"":1242316,""RT90centrN"":6530206,""Code"":""SE-1435""}","{""coordinateUncertaintyInMeters"":11599,""locationDisplayLabel"":""Lur""}"
swe-virtual-herbarium,socken,57.86335,11.69783,Lycke,"{""District"":""Lycke"",""Province"":""Bohuslän"",""Country"":""Sweden"",""Län"":""Västra Götalands län"",""Kommun"":""Kungälv"",""Latitude"":57.86335,""Longitude"":11.69783,""Continent"":""Europe"",""ID"":16511,""xmax"":null,""xmin"":null,""ymax"":null,""ymin"":null,""precision"":10639,""RT90centrE"":1252742,""RT90centrN"":6424154,""Code"":""SE-1482""}","{""coordinateUncertaintyInMeters"":10639,""locationDisplayLabel"":""Lycke""}"
swe-virtual-herbarium,socken,58.314440000000005,11.43707,Lyse,"{""District"":""Lyse"",""Province"":""Bohuslän"",""Country"":""Sweden"",""Län"":""Västra Götalands län"",""Kommun"":""Lysekil"",""Latitude"":58.31444,""Longitude"":11.43707,""Continent"":""Europe"",""ID"":16512,""xmax"":null,""xmin"":null,""ymax"":null,""ymin"":null,""precision"":9528,""RT90centrE"":1244080,""RT90centrN"":6473986,""Code"":""SE-1484""}","{""coordinateUncertaintyInMeters"":9528,""locationDisplayLabel"":""Lyse""}"
swe-virtual-herbarium,socken,58.27731,11.44608,Lysekil,"{""District"":""Lysekil"",""Province"":""Bohuslän"",""Country"":""Sweden"",""Län"":""Västra Götalands län"",""Kommun"":""Lysekil"",""Latitude"":58.27731,""Longitude"":11.44608,""Continent"":""Europe"",""ID"":16513,""xmax"":null,""xmin"":null,""ymax"":null,""ymin"":null,""precision"":3575,""RT90centrE"":1244338,""RT90centrN"":6469821,""Code"":""SE-1484""}","{""coordinateUncertaintyInMeters"":3575,""locationDisplayLabel"":""Lysekil""}"
swe-virtual-herbarium,socken,58.14965,11.78225,Långelanda,"{""District"":""Långelanda"",""Province"":""Bohuslän"",""Country"":""Sweden"",""Län"":""Västra Götalands län"",""Kommun"":""Orust"",""Latitude"":58.14965,""Longitude"":11.78225,""Continent"":""Europe"",""ID"":16514,""xmax"":null,""xmin"":null,""ymax"":null,""ymin"":null,""precision"":5415,""RT90centrE"":1263191,""RT90centrN"":6454389,""Code"":""SE-1421""}","{""coordinateUncertaintyInMeters"":5415,""locationDisplayLabel"":""Långelanda""}"
swe-virtual-herbarium,socken,57.89031,11.569519999999999,Marstrand,"{""District"":""Marstrand"",""Province"":""Bohuslän"",""Country"":""Sweden"",""Län"":""Västra Götalands län"",""Kommun"":""Kungälv"",""Latitude"":57.89031,""Longitude"":11.56952,""Continent"":""Europe"",""ID"":16515,""xmax"":null,""xmin"":null,""ymax"":null,""ymin"":null,""precision"":5789,""RT90centrE"":1248831,""RT90centrN"":6426661,""Code"":""SE-1482""}","{""coordinateUncertaintyInMeters"":5789,""locationDisplayLabel"":""Marstrand""}"
swe-virtual-herbarium,socken,58.687219999999996,11.58687,Mo,"{""District"":""Mo"",""Province"":""Bohuslän"",""Country"":""Sweden"",""Län"":""Västra Götalands län"",""Kommun"":""Tanum"",""Latitude"":58.68722,""Longitude"":11.58687,""Continent"":""Europe"",""ID"":16516,""xmax"":null,""xmin"":null,""ymax"":null,""ymin"":null,""precision"":7397,""RT90centrE"":1319360,""RT90centrN"":6560422,""Code"":""SE-1435""}","{""coordinateUncertaintyInMeters"":7397,""locationDisplayLabel"":""Mo""}"
swe-virtual-herbarium,socken,58.07301999999999,11.45453,Mollösund,"{""District"":""Mollösund"",""Province"":""Bohuslän"",""Country"":""Sweden"",""Län"":""Västra Götalands län"",""Kommun"":""Orust"",""Latitude"":58.07302,""Longitude"":11.45453,""Continent"":""Europe"",""ID"":16517,""xmax"":null,""xmin"":null,""ymax"":null,""ymin"":null,""precision"":4072,""RT90centrE"":1243109,""RT90centrN"":6447350,""Code"":""SE-1421""}","{""coordinateUncertaintyInMeters"":4072,""locationDisplayLabel"":""Mollösund""}"
swe-virtual-herbarium,socken,58.166309999999996,11.48223,Morlanda,"{""District"":""Morlanda"",""Province"":""Bohuslän"",""Country"":""Sweden"",""Län"":""Västra Götalands län"",""Kommun"":""Orust"",""Latitude"":58.16631,""Longitude"":11.48223,""Continent"":""Europe"",""ID"":16518,""xmax"":null,""xmin"":null,""ymax"":null,""ymin"":null,""precision"":10233,""RT90centrE"":1245664,""RT90centrN"":6457336,""Code"":""SE-1421""}","{""coordinateUncertaintyInMeters"":10233,""locationDisplayLabel"":""Morlanda""}"
swe-virtual-herbarium,socken,58.21723000000001,11.78348,Myckleby,"{""District"":""Myckleby"",""Province"":""Bohuslän"",""Country"":""Sweden"",""Län"":""Västra Götalands län"",""Kommun"":""Orust"",""Latitude"":58.21723,""Longitude"":11.78348,""Continent"":""Europe"",""ID"":16519,""xmax"":null,""xmin"":null,""ymax"":null,""ymin"":null,""precision"":7730,""RT90centrE"":1263712,""RT90centrN"":6461905,""Code"":""SE-1421""}","{""coordinateUncertaintyInMeters"":7730,""locationDisplayLabel"":""Myckleby""}"
swe-virtual-herbarium,socken,58.80545,11.58723,Naverstad,"{""District"":""Naverstad"",""Province"":""Bohuslän"",""Country"":""Sweden"",""Län"":""Västra Götalands län"",""Kommun"":""Tanum"",""Latitude"":58.80545,""Longitude"":11.58723,""Continent"":""Europe"",""ID"":16520,""xmax"":null,""xmin"":null,""ymax"":null,""ymin"":null,""precision"":13092,""RT90centrE"":1256307,""RT90centrN"":6528049,""Code"":""SE-1435""}","{""coordinateUncertaintyInMeters"":13092,""locationDisplayLabel"":""Naverstad""}"
swe-virtual-herbarium,socken,58.06855,11.8226,Norum,"{""District"":""Norum"",""Province"":""Bohuslän"",""Country"":""Sweden"",""Län"":""Västra Götalands län"",""Kommun"":""Stenungsund"",""Latitude"":58.06855,""Longitude"":11.8226,""Continent"":""Europe"",""ID"":16521,""xmax"":null,""xmin"":null,""ymax"":null,""ymin"":null,""precision"":6165,""RT90centrE"":1265030,""RT90centrN"":6445226,""Code"":""SE-1415""}","{""coordinateUncertaintyInMeters"":6165,""locationDisplayLabel"":""Norum""}"
swe-virtual-herbarium,socken,59.022,11.33985,Näsinge,"{""District"":""Näsinge"",""Province"":""Bohuslän"",""Country"":""Sweden"",""Län"":""Västra Götalands län"",""Kommun"":""Strömstad"",""Latitude"":59.022,""Longitude"":11.33985,""Continent"":""Europe"",""ID"":16522,""xmax"":null,""xmin"":null,""ymax"":null,""ymin"":null,""precision"":5361,""RT90centrE"":1243640,""RT90centrN"":6553064,""Code"":""SE-1486""}","{""coordinateUncertaintyInMeters"":5361,""locationDisplayLabel"":""Näsinge""}"
swe-virtual-herbarium,socken,58.245169999999995,11.879010000000001,Resteröd,"{""District"":""Resteröd"",""Province"":""Bohuslän"",""Country"":""Sweden"",""Län"":""Västra Götalands län"",""Kommun"":""Uddevalla"",""Latitude"":58.24517,""Longitude"":11.87901,""Continent"":""Europe"",""ID"":16523,""xmax"":null,""xmin"":null,""ymax"":null,""ymin"":null,""precision"":3915,""RT90centrE"":1269502,""RT90centrN"":6464682,""Code"":""SE-1485""}","{""coordinateUncertaintyInMeters"":3915,""locationDisplayLabel"":""Resteröd""}"
swe-virtual-herbarium,socken,57.966159999999995,12.04994,Romelanda,"{""District"":""Romelanda"",""Province"":""Bohuslän"",""Country"":""Sweden"",""Län"":""Västra Götalands län"",""Kommun"":""Kungälv"",""Latitude"":57.96616,""Longitude"":12.04994,""Continent"":""Europe"",""ID"":16524,""xmax"":null,""xmin"":null,""ymax"":null,""ymin"":null,""precision"":8262,""RT90centrE"":1277800,""RT90centrN"":6433062,""Code"":""SE-1482""}","{""coordinateUncertaintyInMeters"":8262,""locationDisplayLabel"":""Romelanda""}"
swe-virtual-herbarium,socken,57.83911,11.97649,Rödbo,"{""District"":""Rödbo"",""Province"":""Bohuslän"",""Country"":""Sweden"",""Län"":""Västra Götalands län"",""Kommun"":""Göteborg"",""Latitude"":57.83911,""Longitude"":11.97649,""Continent"":""Europe"",""ID"":16525,""xmax"":null,""xmin"":null,""ymax"":null,""ymin"":null,""precision"":3325,""RT90centrE"":1272656,""RT90centrN"":6419169,""Code"":""SE-1480""}","{""coordinateUncertaintyInMeters"":3325,""locationDisplayLabel"":""Rödbo""}"
swe-virtual-herbarium,socken,57.93278000000001,11.60771,Rönnäng,"{""District"":""Rönnäng"",""Province"":""Bohuslän"",""Country"":""Sweden"",""Län"":""Västra Götalands län"",""Kommun"":""Tjörn"",""Latitude"":57.93278,""Longitude"":11.60771,""Continent"":""Europe"",""ID"":16526,""xmax"":null,""xmin"":null,""ymax"":null,""ymin"":null,""precision"":5166,""RT90centrE"":1251421,""RT90centrN"":6430890,""Code"":""SE-1419""}","{""coordinateUncertaintyInMeters"":5166,""locationDisplayLabel"":""Rönnäng""}"
swe-virtual-herbarium,socken,58.216269999999994,11.63942,Röra,"{""District"":""Röra"",""Province"":""Bohuslän"",""Country"":""Sweden"",""Län"":""Västra Götalands län"",""Kommun"":""Orust"",""Latitude"":58.21627,""Longitude"":11.63942,""Continent"":""Europe"",""ID"":16527,""xmax"":null,""xmin"":null,""ymax"":null,""ymin"":null,""precision"":6178,""RT90centrE"":1255248,""RT90centrN"":6462312,""Code"":""SE-1421""}","{""coordinateUncertaintyInMeters"":6178,""locationDisplayLabel"":""Röra""}"
swe-virtual-herbarium,socken,58.67423,11.86789,Sanne,"{""District"":""Sanne"",""Province"":""Bohuslän"",""Country"":""Sweden"",""Län"":""Västra Götalands län"",""Kommun"":""Munkedal"",""Latitude"":58.67423,""Longitude"":11.86789,""Continent"":""Europe"",""ID"":16528,""xmax"":null,""xmin"":null,""ymax"":null,""ymin"":null,""precision"":5991,""RT90centrE"":1271652,""RT90centrN"":6512460,""Code"":""SE-1430""}","{""coordinateUncertaintyInMeters"":5991,""locationDisplayLabel"":""Sanne""}"
swe-virtual-herbarium,socken,58.22504,11.419889999999999,Skaftö,"{""District"":""Skaftö"",""Province"":""Bohuslän"",""Country"":""Sweden"",""Län"":""Västra Götalands län"",""Kommun"":""Lysekil"",""Latitude"":58.22504,""Longitude"":11.41989,""Continent"":""Europe"",""ID"":16529,""xmax"":null,""xmin"":null,""ymax"":null,""ymin"":null,""precision"":8107,""RT90centrE"":1240635,""RT90centrN"":6463970,""Code"":""SE-1484""}","{""coordinateUncertaintyInMeters"":8107,""locationDisplayLabel"":""Skaftö""}"
swe-virtual-herbarium,socken,58.93266,11.29615,Skee,"{""District"":""Skee"",""Province"":""Bohuslän"",""Country"":""Sweden"",""Län"":""Västra Götalands län"",""Kommun"":""Strömstad"",""Latitude"":58.93266,""Longitude"":11.29615,""Continent"":""Europe"",""ID"":16530,""xmax"":null,""xmin"":null,""ymax"":null,""ymin"":null,""precision"":15731,""RT90centrE"":1240462,""RT90centrN"":6543297,""Code"":""SE-1486""}","{""coordinateUncertaintyInMeters"":15731,""locationDisplayLabel"":""Skee""}"
swe-virtual-herbarium,socken,58.38671,11.69566,Skredsvik,"{""District"":""Skredsvik"",""Province"":""Bohuslän"",""Country"":""Sweden"",""Län"":""Västra Götalands län"",""Kommun"":""Uddevalla"",""Latitude"":58.38671,""Longitude"":11.69566,""Continent"":""Europe"",""ID"":16531,""xmax"":null,""xmin"":null,""ymax"":null,""ymin"":null,""precision"":9298,""RT90centrE"":1259710,""RT90centrN"":6481071,""Code"":""SE-1485""}","{""coordinateUncertaintyInMeters"":9298,""locationDisplayLabel"":""Skredsvik""}"
swe-virtual-herbarium,socken,57.94231,11.81198,Solberga,"{""District"":""Solberga"",""Province"":""Bohuslän"",""Country"":""Sweden"",""Län"":""Västra Götalands län"",""Kommun"":""Kungälv"",""Latitude"":57.94231,""Longitude"":11.81198,""Continent"":""Europe"",""ID"":16532,""xmax"":null,""xmin"":null,""ymax"":null,""ymin"":null,""precision"":10676,""RT90centrE"":1263573,""RT90centrN"":6431217,""Code"":""SE-1482""}","{""coordinateUncertaintyInMeters"":10676,""locationDisplayLabel"":""Solberga""}"
swe-virtual-herbarium,socken,58.02255,11.9396,Spekeröd,"{""District"":""Spekeröd"",""Province"":""Bohuslän"",""Country"":""Sweden"",""Län"":""Västra Götalands län"",""Kommun"":""Stenungsund"",""Latitude"":58.02255,""Longitude"":11.9396,""Continent"":""Europe"",""ID"":16533,""xmax"":null,""xmin"":null,""ymax"":null,""ymin"":null,""precision"":7152,""RT90centrE"":1271635,""RT90centrN"":6439706,""Code"":""SE-1415""}","{""coordinateUncertaintyInMeters"":7152,""locationDisplayLabel"":""Spekeröd""}"
swe-virtual-herbarium,socken,58.128719999999994,11.66403,Stala,"{""District"":""Stala"",""Province"":""Bohuslän"",""Country"":""Sweden"",""Län"":""Västra Götalands län"",""Kommun"":""Orust"",""Latitude"":58.12872,""Longitude"":11.66403,""Continent"":""Europe"",""ID"":16534,""xmax"":null,""xmin"":null,""ymax"":null,""ymin"":null,""precision"":7737,""RT90centrE"":1256093,""RT90centrN"":6452482,""Code"":""SE-1421""}","{""coordinateUncertaintyInMeters"":7737,""locationDisplayLabel"":""Stala""}"
swe-virtual-herbarium,socken,57.98978,11.61271,Stenkyrka,"{""District"":""Stenkyrka"",""Province"":""Bohuslän"",""Country"":""Sweden"",""Län"":""Västra Götalands län"",""Kommun"":""Tjörn"",""Latitude"":57.98978,""Longitude"":11.61271,""Continent"":""Europe"",""ID"":16535,""xmax"":null,""xmin"":null,""ymax"":null,""ymin"":null,""precision"":8480,""RT90centrE"":1252111,""RT90centrN"":6437212,""Code"":""SE-1419""}","{""coordinateUncertaintyInMeters"":8480,""locationDisplayLabel"":""Stenkyrka""}"
swe-virtual-herbarium,socken,58.938669999999995,11.179910000000001,Strömstad,"{""District"":""Strömstad"",""Province"":""Bohuslän"",""Country"":""Sweden"",""Län"":""Västra Götalands län"",""Kommun"":""Strömstad"",""Latitude"":58.93867,""Longitude"":11.17991,""Continent"":""Europe"",""ID"":16536,""xmax"":null,""xmin"":null,""ymax"":null,""ymin"":null,""precision"":2486,""RT90centrE"":1233823,""RT90centrN"":6544422,""Code"":""SE-1486""}","{""coordinateUncertaintyInMeters"":2486,""locationDisplayLabel"":""Strömstad""}"
swe-virtual-herbarium,socken,58.580690000000004,11.57817,Svarteborg,"{""District"":""Svarteborg"",""Province"":""Bohuslän"",""Country"":""Sweden"",""Län"":""Västra Götalands län"",""Kommun"":""Munkedal"",""Latitude"":58.58069,""Longitude"":11.57817,""Continent"":""Europe"",""ID"":16537,""xmax"":null,""xmin"":null,""ymax"":null,""ymin"":null,""precision"":10945,""RT90centrE"":1254205,""RT90centrN"":6503077,""Code"":""SE-1430""}","{""coordinateUncertaintyInMeters"":10945,""locationDisplayLabel"":""Svarteborg""}"
swe-virtual-herbarium,socken,58.49977,11.29898,Svenneby,"{""District"":""Svenneby"",""Province"":""Bohuslän"",""Country"":""Sweden"",""Län"":""Västra Götalands län"",""Kommun"":""Tanum"",""Latitude"":58.49977,""Longitude"":11.29898,""Continent"":""Europe"",""ID"":16538,""xmax"":null,""xmin"":null,""ymax"":null,""ymin"":null,""precision"":9254,""RT90centrE"":1234686,""RT90centrN"":6494718,""Code"":""SE-1435""}","{""coordinateUncertaintyInMeters"":9254,""locationDisplayLabel"":""Svenneby""}"
swe-virtual-herbarium,socken,57.79979,11.93176,Säve,"{""District"":""Säve"",""Province"":""Bohuslän"",""Country"":""Sweden"",""Län"":""Västra Götalands län"",""Kommun"":""Göteborg"",""Latitude"":57.79979,""Longitude"":11.93176,""Continent"":""Europe"",""ID"":16539,""xmax"":null,""xmin"":null,""ymax"":null,""ymin"":null,""precision"":5665,""RT90centrE"":1269750,""RT90centrN"":6414947,""Code"":""SE-1480""}","{""coordinateUncertaintyInMeters"":5665,""locationDisplayLabel"":""Säve""}"
swe-virtual-herbarium,socken,58.71075,11.208210000000001,Tanum,"{""District"":""Tanum"",""Province"":""Bohuslän"",""Country"":""Sweden"",""Län"":""Västra Götalands län"",""Kommun"":""Tanum"",""Latitude"":58.71075,""Longitude"":11.20821,""Continent"":""Europe"",""ID"":16540,""xmax"":null,""xmin"":null,""ymax"":null,""ymin"":null,""precision"":18319,""RT90centrE"":1233707,""RT90centrN"":6518958,""Code"":""SE-1435""}","{""coordinateUncertaintyInMeters"":18319,""locationDisplayLabel"":""Tanum""}"
swe-virtual-herbarium,socken,58.12539,11.55127,Tegneby,"{""District"":""Tegneby"",""Province"":""Bohuslän"",""Country"":""Sweden"",""Län"":""Västra Götalands län"",""Kommun"":""Orust"",""Latitude"":58.12539,""Longitude"":11.55127,""Continent"":""Europe"",""ID"":16541,""xmax"":null,""xmin"":null,""ymax"":null,""ymin"":null,""precision"":11471,""RT90centrE"":1249435,""RT90centrN"":6452527,""Code"":""SE-1421""}","{""coordinateUncertaintyInMeters"":11471,""locationDisplayLabel"":""Tegneby""}"
swe-virtual-herbarium,socken,58.87565,11.119060000000001,Tjärnö,"{""District"":""Tjärnö"",""Province"":""Bohuslän"",""Country"":""Sweden"",""Län"":""Västra Götalands län"",""Kommun"":""Strömstad"",""Latitude"":58.87565,""Longitude"":11.11906,""Continent"":""Europe"",""ID"":16542,""xmax"":null,""xmin"":null,""ymax"":null,""ymin"":null,""precision"":11064,""RT90centrE"":1226760,""RT90centrN"":6537759,""Code"":""SE-1486""}","{""coordinateUncertaintyInMeters"":11064,""locationDisplayLabel"":""Tjärnö""}"
swe-virtual-herbarium,socken,58.267590000000006,11.72182,Torp,"{""District"":""Torp"",""Province"":""Bohuslän"",""Country"":""Sweden"",""Län"":""Västra Götalands län"",""Kommun"":""Orust"",""Latitude"":58.26759,""Longitude"":11.72182,""Continent"":""Europe"",""ID"":16543,""xmax"":null,""xmin"":null,""ymax"":null,""ymin"":null,""precision"":9463,""RT90centrE"":1275008,""RT90centrN"":6491520,""Code"":""SE-1421""}","{""coordinateUncertaintyInMeters"":9463,""locationDisplayLabel"":""Torp""}"
swe-virtual-herbarium,socken,57.82326,11.71833,Torsby,"{""District"":""Torsby"",""Province"":""Bohuslän"",""Country"":""Sweden"",""Län"":""Västra Götalands län"",""Kommun"":""Kungälv"",""Latitude"":57.82326,""Longitude"":11.71833,""Continent"":""Europe"",""ID"":16544,""xmax"":null,""xmin"":null,""ymax"":null,""ymin"":null,""precision"":10627,""RT90centrE"":1257231,""RT90centrN"":6418305,""Code"":""SE-1482""}","{""coordinateUncertaintyInMeters"":10627,""locationDisplayLabel"":""Torsby""}"
swe-virtual-herbarium,socken,57.70423,11.74393,Torslanda,"{""District"":""Torslanda"",""Province"":""Bohuslän"",""Country"":""Sweden"",""Län"":""Västra Götalands län"",""Kommun"":""Göteborg"",""Latitude"":57.70423,""Longitude"":11.74393,""Continent"":""Europe"",""ID"":16545,""xmax"":null,""xmin"":null,""ymax"":null,""ymin"":null,""precision"":4965,""RT90centrE"":1257955,""RT90centrN"":6404970,""Code"":""SE-1480""}","{""coordinateUncertaintyInMeters"":4965,""locationDisplayLabel"":""Torslanda""}"
swe-virtual-herbarium,socken,58.45465,11.37154,Tossene,"{""District"":""Tossene"",""Province"":""Bohuslän"",""Country"":""Sweden"",""Län"":""Västra Götalands län"",""Kommun"":""Sotenäs"",""Latitude"":58.45465,""Longitude"":11.37154,""Continent"":""Europe"",""ID"":16546,""xmax"":null,""xmin"":null,""ymax"":null,""ymin"":null,""precision"":7785,""RT90centrE"":1241274,""RT90centrN"":6489833,""Code"":""SE-1427""}","{""coordinateUncertaintyInMeters"":7785,""locationDisplayLabel"":""Tossene""}"
swe-virtual-herbarium,socken,58.088119999999996,11.98236,Ucklum,"{""District"":""Ucklum"",""Province"":""Bohuslän"",""Country"":""Sweden"",""Län"":""Västra Götalands län"",""Kommun"":""Stenungsund"",""Latitude"":58.08812,""Longitude"":11.98236,""Continent"":""Europe"",""ID"":16547,""xmax"":null,""xmin"":null,""ymax"":null,""ymin"":null,""precision"":7829,""RT90centrE"":1274574,""RT90centrN"":6446857,""Code"":""SE-1415""}","{""coordinateUncertaintyInMeters"":7829,""locationDisplayLabel"":""Ucklum""}"
swe-virtual-herbarium,socken,58.35471999999999,11.974960000000001,Uddevalla,"{""District"":""Uddevalla"",""Province"":""Bohuslän"",""Country"":""Sweden"",""Län"":""Västra Götalands län"",""Kommun"":""Uddevalla"",""Latitude"":58.35472,""Longitude"":11.97496,""Continent"":""Europe"",""ID"":16548,""xmax"":null,""xmin"":null,""ymax"":null,""ymin"":null,""precision"":9267,""RT90centrE"":1275826,""RT90centrN"":6476547,""Code"":""SE-1485""}","{""coordinateUncertaintyInMeters"":9267,""locationDisplayLabel"":""Uddevalla""}"
swe-virtual-herbarium,socken,58.04795,11.714739999999999,Valla,"{""District"":""Valla"",""Province"":""Bohuslän"",""Country"":""Sweden"",""Län"":""Västra Götalands län"",""Kommun"":""Tjörn"",""Latitude"":58.04795,""Longitude"":11.71474,""Continent"":""Europe"",""ID"":16549,""xmax"":null,""xmin"":null,""ymax"":null,""ymin"":null,""precision"":8515,""RT90centrE"":1258533,""RT90centrN"":6443315,""Code"":""SE-1419""}","{""coordinateUncertaintyInMeters"":8515,""locationDisplayLabel"":""Valla""}"
swe-virtual-herbarium,socken,58.0718,12.09332,Västerlanda,"{""District"":""Västerlanda"",""Province"":""Bohuslän"",""Country"":""Sweden"",""Län"":""Västra Götalands län"",""Kommun"":""Lilla Edet"",""Latitude"":58.0718,""Longitude"":12.09332,""Continent"":""Europe"",""ID"":16550,""xmax"":null,""xmin"":null,""ymax"":null,""ymin"":null,""precision"":7723,""RT90centrE"":1281013,""RT90centrN"":6444675,""Code"":""SE-1462""}","{""coordinateUncertaintyInMeters"":7723,""locationDisplayLabel"":""Västerlanda""}"
swe-virtual-herbarium,socken,57.86684,11.91878,Ytterby,"{""District"":""Ytterby"",""Province"":""Bohuslän"",""Country"":""Sweden"",""Län"":""Västra Götalands län"",""Kommun"":""Kungälv"",""Latitude"":57.86684,""Longitude"":11.91878,""Continent"":""Europe"",""ID"":16551,""xmax"":null,""xmin"":null,""ymax"":null,""ymin"":null,""precision"":7591,""RT90centrE"":1269408,""RT90centrN"":6422450,""Code"":""SE-1482""}","{""coordinateUncertaintyInMeters"":7591,""locationDisplayLabel"":""Ytterby""}"
swe-virtual-herbarium,socken,57.72541999999999,11.63782,Öckerö,"{""District"":""Öckerö"",""Province"":""Bohuslän"",""Country"":""Sweden"",""Län"":""Västra Götalands län"",""Kommun"":""Öckerö"",""Latitude"":57.72542,""Longitude"":11.63782,""Continent"":""Europe"",""ID"":16552,""xmax"":null,""xmin"":null,""ymax"":null,""ymin"":null,""precision"":10341,""RT90centrE"":1250674,""RT90centrN"":6409066,""Code"":""SE-1407""}","{""coordinateUncertaintyInMeters"":10341,""locationDisplayLabel"":""Öckerö""}"
swe-virtual-herbarium,socken,58.118030000000005,11.87878,Ödsmål,"{""District"":""Ödsmål"",""Province"":""Bohuslän"",""Country"":""Sweden"",""Län"":""Västra Götalands län"",""Kommun"":""Stenungsund"",""Latitude"":58.11803,""Longitude"":11.87878,""Continent"":""Europe"",""ID"":16553,""xmax"":null,""xmin"":null,""ymax"":null,""ymin"":null,""precision"":5209,""RT90centrE"":1268664,""RT90centrN"":6450536,""Code"":""SE-1415""}","{""coordinateUncertaintyInMeters"":5209,""locationDisplayLabel"":""Ödsmål""}"
swe-virtual-herbarium,socken,60.58076,15.4523,Aspeboda,"{""District"":""Aspeboda"",""Province"":""Dalarna"",""Country"":""Sweden"",""Län"":""Dalarnas län"",""Kommun"":""Falun"",""Latitude"":60.58076,""Longitude"":15.4523,""Continent"":""Europe"",""ID"":16554,""xmax"":null,""xmin"":null,""ymax"":null,""ymin"":null,""precision"":9416,""RT90centrE"":1480660,""RT90centrN"":6718203,""Code"":""SE-2080""}","{""coordinateUncertaintyInMeters"":9416,""locationDisplayLabel"":""Aspeboda""}"
swe-virtual-herbarium,socken,60.141290000000005,16.15645,Avesta,"{""District"":""Avesta"",""Province"":""Dalarna"",""Country"":""Sweden"",""Län"":""Dalarnas län"",""Kommun"":""Avesta"",""Latitude"":60.14129,""Longitude"":16.15645,""Continent"":""Europe"",""ID"":16555,""xmax"":null,""xmin"":null,""ymax"":null,""ymin"":null,""precision"":4061,""RT90centrE"":1519521,""RT90centrN"":6669237,""Code"":""SE-2084""}","{""coordinateUncertaintyInMeters"":4061,""locationDisplayLabel"":""Avesta""}"
swe-virtual-herbarium,socken,60.759519999999995,15.44774,Bjursås,"{""District"":""Bjursås"",""Province"":""Dalarna"",""Country"":""Sweden"",""Län"":""Dalarnas län"",""Kommun"":""Falun"",""Latitude"":60.75952,""Longitude"":15.44774,""Continent"":""Europe"",""ID"":16556,""xmax"":null,""xmin"":null,""ymax"":null,""ymin"":null,""precision"":15871,""RT90centrE"":1480519,""RT90centrN"":6738122,""Code"":""SE-2080""}","{""coordinateUncertaintyInMeters"":15871,""locationDisplayLabel"":""Bjursås""}"
swe-virtual-herbarium,socken,61.02994,15.216879999999998,Boda,"{""District"":""Boda"",""Province"":""Dalarna"",""Country"":""Sweden"",""Län"":""Dalarnas län"",""Kommun"":""Rättvik"",""Latitude"":61.02994,""Longitude"":15.21688,""Continent"":""Europe"",""ID"":16557,""xmax"":null,""xmin"":null,""ymax"":null,""ymin"":null,""precision"":23185,""RT90centrE"":1468204,""RT90centrN"":6768343,""Code"":""SE-2031""}","{""coordinateUncertaintyInMeters"":23185,""locationDisplayLabel"":""Boda""}"
swe-virtual-herbarium,socken,60.512769999999996,15.43227,Borlänge,"{""District"":""Borlänge"",""Province"":""Dalarna"",""Country"":""Sweden"",""Län"":""Dalarnas län"",""Kommun"":""Borlänge"",""Latitude"":60.51277,""Longitude"":15.43227,""Continent"":""Europe"",""ID"":16558,""xmax"":null,""xmin"":null,""ymax"":null,""ymin"":null,""precision"":5572,""RT90centrE"":1479518,""RT90centrN"":6710633,""Code"":""SE-2081""}","{""coordinateUncertaintyInMeters"":5572,""locationDisplayLabel"":""Borlänge""}"
swe-virtual-herbarium,socken,60.258419999999994,16.480179999999997,By,"{""District"":""By"",""Province"":""Dalarna"",""Country"":""Sweden"",""Län"":""Dalarnas län"",""Kommun"":""Avesta"",""Latitude"":60.25842,""Longitude"":16.48018,""Continent"":""Europe"",""ID"":16559,""xmax"":null,""xmin"":null,""ymax"":null,""ymin"":null,""precision"":14507,""RT90centrE"":1537375,""RT90centrN"":6682426,""Code"":""SE-2084""}","{""coordinateUncertaintyInMeters"":14507,""locationDisplayLabel"":""By""}"
swe-virtual-herbarium,socken,60.91529,15.763520000000002,Enviken,"{""District"":""Enviken"",""Province"":""Dalarna"",""Country"":""Sweden"",""Län"":""Dalarnas län"",""Kommun"":""Falun"",""Latitude"":60.91529,""Longitude"":15.76352,""Continent"":""Europe"",""ID"":16560,""xmax"":null,""xmin"":null,""ymax"":null,""ymin"":null,""precision"":16772,""RT90centrE"":1497744,""RT90centrN"":6755426,""Code"":""SE-2080""}","{""coordinateUncertaintyInMeters"":16772,""locationDisplayLabel"":""Enviken""}"
swe-virtual-herbarium,socken,60.61135,15.62793,Falun,"{""District"":""Falun"",""Province"":""Dalarna"",""Country"":""Sweden"",""Län"":""Dalarnas län"",""Kommun"":""Falun"",""Latitude"":60.61135,""Longitude"":15.62793,""Continent"":""Europe"",""ID"":16561,""xmax"":null,""xmin"":null,""ymax"":null,""ymin"":null,""precision"":3419,""RT90centrE"":1490296,""RT90centrN"":6721571,""Code"":""SE-2080""}","{""coordinateUncertaintyInMeters"":3419,""locationDisplayLabel"":""Falun""}"
swe-virtual-herbarium,socken,60.44355,14.729420000000001,Floda,"{""District"":""Floda"",""Province"":""Dalarna"",""Country"":""Sweden"",""Län"":""Dalarnas län"",""Kommun"":""Gagnef"",""Latitude"":60.44355,""Longitude"":14.72942,""Continent"":""Europe"",""ID"":16562,""xmax"":null,""xmin"":null,""ymax"":null,""ymin"":null,""precision"":19487,""RT90centrE"":1440784,""RT90centrN"":6703347,""Code"":""SE-2026""}","{""coordinateUncertaintyInMeters"":19487,""locationDisplayLabel"":""Floda""}"
swe-virtual-herbarium,socken,60.160619999999994,16.305310000000002,Folkärna,"{""District"":""Folkärna"",""Province"":""Dalarna"",""Country"":""Sweden"",""Län"":""Dalarnas län"",""Kommun"":""Avesta"",""Latitude"":60.16062,""Longitude"":16.30531,""Continent"":""Europe"",""ID"":16563,""xmax"":null,""xmin"":null,""ymax"":null,""ymin"":null,""precision"":13533,""RT90centrE"":1527776,""RT90centrN"":6671444,""Code"":""SE-2084""}","{""coordinateUncertaintyInMeters"":13533,""locationDisplayLabel"":""Folkärna""}"
swe-virtual-herbarium,socken,60.50785,15.0546,Gagnef,"{""District"":""Gagnef"",""Province"":""Dalarna"",""Country"":""Sweden"",""Län"":""Dalarnas län"",""Kommun"":""Gagnef"",""Latitude"":60.50785,""Longitude"":15.0546,""Continent"":""Europe"",""ID"":16564,""xmax"":null,""xmin"":null,""ymax"":null,""ymin"":null,""precision"":20227,""RT90centrE"":1458766,""RT90centrN"":6710262,""Code"":""SE-2026""}","{""coordinateUncertaintyInMeters"":20227,""locationDisplayLabel"":""Gagnef""}"
swe-virtual-herbarium,socken,60.310219999999994,16.20838,Garpenberg,"{""District"":""Garpenberg"",""Province"":""Dalarna"",""Country"":""Sweden"",""Län"":""Dalarnas län"",""Kommun"":""Hedemora"",""Latitude"":60.31022,""Longitude"":16.20838,""Continent"":""Europe"",""ID"":16565,""xmax"":null,""xmin"":null,""ymax"":null,""ymin"":null,""precision"":10397,""RT90centrE"":1522292,""RT90centrN"":6688075,""Code"":""SE-2083""}","{""coordinateUncertaintyInMeters"":10397,""locationDisplayLabel"":""Garpenberg""}"
swe-virtual-herbarium,socken,60.22079,14.894739999999999,Grangärde,"{""District"":""Grangärde"",""Province"":""Dalarna"",""Country"":""Sweden"",""Län"":""Dalarnas län"",""Kommun"":""Ludvika"",""Latitude"":60.22079,""Longitude"":14.89474,""Continent"":""Europe"",""ID"":16566,""xmax"":null,""xmin"":null,""ymax"":null,""ymin"":null,""precision"":27095,""RT90centrE"":1449540,""RT90centrN"":6678391,""Code"":""SE-2085""}","{""coordinateUncertaintyInMeters"":27095,""locationDisplayLabel"":""Grangärde""}"
swe-virtual-herbarium,socken,60.190430000000006,16.144660000000002,Grytnäs,"{""District"":""Grytnäs"",""Province"":""Dalarna"",""Country"":""Sweden"",""Län"":""Dalarnas län"",""Kommun"":""Avesta"",""Latitude"":60.19043,""Longitude"":16.14466,""Continent"":""Europe"",""ID"":16567,""xmax"":null,""xmin"":null,""ymax"":null,""ymin"":null,""precision"":9345,""RT90centrE"":1518837,""RT90centrN"":6674708,""Code"":""SE-2084""}","{""coordinateUncertaintyInMeters"":9345,""locationDisplayLabel"":""Grytnäs""}"
swe-virtual-herbarium,socken,60.40056,15.63274,Gustafs,"{""District"":""Gustafs"",""Province"":""Dalarna"",""Country"":""Sweden"",""Län"":""Dalarnas län"",""Kommun"":""Säter"",""Latitude"":60.40056,""Longitude"":15.63274,""Continent"":""Europe"",""ID"":16568,""xmax"":null,""xmin"":null,""ymax"":null,""ymin"":null,""precision"":19304,""RT90centrE"":1490498,""RT90centrN"":6698085,""Code"":""SE-2082""}","{""coordinateUncertaintyInMeters"":19304,""locationDisplayLabel"":""Gustafs""}"
swe-virtual-herbarium,socken,60.262409999999996,15.92075,Hedemora,"{""District"":""Hedemora"",""Province"":""Dalarna"",""Country"":""Sweden"",""Län"":""Dalarnas län"",""Kommun"":""Hedemora"",""Latitude"":60.26241,""Longitude"":15.92075,""Continent"":""Europe"",""ID"":16569,""xmax"":null,""xmin"":null,""ymax"":null,""ymin"":null,""precision"":15385,""RT90centrE"":1506402,""RT90centrN"":6682684,""Code"":""SE-2083""}","{""coordinateUncertaintyInMeters"":15385,""locationDisplayLabel"":""Hedemora""}"
swe-virtual-herbarium,socken,60.44706,16.12545,Husby,"{""District"":""Husby"",""Province"":""Dalarna"",""Country"":""Sweden"",""Län"":""Dalarnas län"",""Kommun"":""Hedemora"",""Latitude"":60.44706,""Longitude"":16.12545,""Continent"":""Europe"",""ID"":16570,""xmax"":null,""xmin"":null,""ymax"":null,""ymin"":null,""precision"":18199,""RT90centrE"":1517633,""RT90centrN"":6703296,""Code"":""SE-2083""}","{""coordinateUncertaintyInMeters"":18199,""locationDisplayLabel"":""Husby""}"
swe-virtual-herbarium,socken,61.97003,12.61936,Idre,"{""District"":""Idre"",""Province"":""Dalarna"",""Country"":""Sweden"",""Län"":""Dalarnas län"",""Kommun"":""Älvdalen"",""Latitude"":61.97003,""Longitude"":12.61936,""Continent"":""Europe"",""ID"":16571,""xmax"":null,""xmin"":null,""ymax"":null,""ymin"":null,""precision"":40656,""RT90centrE"":1332959,""RT90centrN"":6877066,""Code"":""SE-2039""}","{""coordinateUncertaintyInMeters"":40656,""locationDisplayLabel"":""Idre""}"
swe-virtual-herbarium,socken,60.522009999999995,14.24218,Järna,"{""District"":""Järna"",""Province"":""Dalarna"",""Country"":""Sweden"",""Län"":""Dalarnas län"",""Kommun"":""Vansbro"",""Latitude"":60.52201,""Longitude"":14.24218,""Continent"":""Europe"",""ID"":16572,""xmax"":null,""xmin"":null,""ymax"":null,""ymin"":null,""precision"":31643,""RT90centrE"":1414172,""RT90centrN"":6712624,""Code"":""SE-2021""}","{""coordinateUncertaintyInMeters"":31643,""locationDisplayLabel"":""Järna""}"
swe-virtual-herbarium,socken,60.712959999999995,14.931610000000001,Leksand,"{""District"":""Leksand"",""Province"":""Dalarna"",""Country"":""Sweden"",""Län"":""Dalarnas län"",""Kommun"":""Leksand"",""Latitude"":60.71296,""Longitude"":14.93161,""Continent"":""Europe"",""ID"":16573,""xmax"":null,""xmin"":null,""ymax"":null,""ymin"":null,""precision"":41349,""RT90centrE"":1452313,""RT90centrN"":6733199,""Code"":""SE-2029""}","{""coordinateUncertaintyInMeters"":41349,""locationDisplayLabel"":""Leksand""}"
swe-virtual-herbarium,socken,60.97044,13.12568,Lima,"{""District"":""Lima"",""Province"":""Dalarna"",""Country"":""Sweden"",""Län"":""Dalarnas län"",""Kommun"":""Malung"",""Latitude"":60.97044,""Longitude"":13.12568,""Continent"":""Europe"",""ID"":16574,""xmax"":null,""xmin"":null,""ymax"":null,""ymin"":null,""precision"":31845,""RT90centrE"":1354916,""RT90centrN"":6764540,""Code"":""SE-2023""}","{""coordinateUncertaintyInMeters"":31845,""locationDisplayLabel"":""Lima""}"
swe-virtual-herbarium,socken,61.68413,14.782829999999999,Los,"{""District"":""Los"",""Province"":""Dalarna"",""Country"":""Sweden"",""Län"":""Gävleborgs län"",""Kommun"":""Ljusdal"",""Latitude"":61.68413,""Longitude"":14.78283,""Continent"":""Europe"",""ID"":16575,""xmax"":null,""xmin"":null,""ymax"":null,""ymin"":null,""precision"":28744,""RT90centrE"":1454802,""RT90centrN"":6841248,""Code"":""SE-2161""}","{""coordinateUncertaintyInMeters"":28744,""locationDisplayLabel"":""Los""}"
swe-virtual-herbarium,socken,60.15206,15.1395,Ludvika,"{""District"":""Ludvika"",""Province"":""Dalarna"",""Country"":""Sweden"",""Län"":""Dalarnas län"",""Kommun"":""Ludvika"",""Latitude"":60.15206,""Longitude"":15.1395,""Continent"":""Europe"",""ID"":16576,""xmax"":null,""xmin"":null,""ymax"":null,""ymin"":null,""precision"":16023,""RT90centrE"":1463030,""RT90centrN"":6670572,""Code"":""SE-2085""}","{""coordinateUncertaintyInMeters"":16023,""locationDisplayLabel"":""Ludvika""}"
swe-virtual-herbarium,socken,59.93826,15.38667,Malingsbo,"{""District"":""Malingsbo"",""Province"":""Dalarna"",""Country"":""Sweden"",""Län"":""Dalarnas län"",""Kommun"":""Smedjebacken"",""Latitude"":59.93826,""Longitude"":15.38667,""Continent"":""Europe"",""ID"":16577,""xmax"":null,""xmin"":null,""ymax"":null,""ymin"":null,""precision"":9797,""RT90centrE"":1476606,""RT90centrN"":6646638,""Code"":""SE-2061""}","{""coordinateUncertaintyInMeters"":9797,""locationDisplayLabel"":""Malingsbo""}"
swe-virtual-herbarium,socken,60.60839,13.68084,Malung,"{""District"":""Malung"",""Province"":""Dalarna"",""Country"":""Sweden"",""Län"":""Dalarnas län"",""Kommun"":""Malung"",""Latitude"":60.60839,""Longitude"":13.68084,""Continent"":""Europe"",""ID"":16578,""xmax"":null,""xmin"":null,""ymax"":null,""ymin"":null,""precision"":50761,""RT90centrE"":1383662,""RT90centrN"":6723109,""Code"":""SE-2023""}","{""coordinateUncertaintyInMeters"":50761,""locationDisplayLabel"":""Malung""}"
swe-virtual-herbarium,socken,60.98731,14.38601,Mora,"{""District"":""Mora"",""Province"":""Dalarna"",""Country"":""Sweden"",""Län"":""Dalarnas län"",""Kommun"":""Mora"",""Latitude"":60.98731,""Longitude"":14.38601,""Continent"":""Europe"",""ID"":16579,""xmax"":null,""xmin"":null,""ymax"":null,""ymin"":null,""precision"":73991,""RT90centrE"":1423191,""RT90centrN"":6764284,""Code"":""SE-2062""}","{""coordinateUncertaintyInMeters"":73991,""locationDisplayLabel"":""Mora""}"
swe-virtual-herbarium,socken,60.142469999999996,15.354370000000001,Norrbärke,"{""District"":""Norrbärke"",""Province"":""Dalarna"",""Country"":""Sweden"",""Län"":""Dalarnas län"",""Kommun"":""Smedjebacken"",""Latitude"":60.14247,""Longitude"":15.35437,""Continent"":""Europe"",""ID"":16580,""xmax"":null,""xmin"":null,""ymax"":null,""ymin"":null,""precision"":19817,""RT90centrE"":1474957,""RT90centrN"":6669403,""Code"":""SE-2061""}","{""coordinateUncertaintyInMeters"":19817,""locationDisplayLabel"":""Norrbärke""}"
swe-virtual-herbarium,socken,60.36281999999999,14.452470000000002,Nås,"{""District"":""Nås"",""Province"":""Dalarna"",""Country"":""Sweden"",""Län"":""Dalarnas län"",""Kommun"":""Vansbro"",""Latitude"":60.36282,""Longitude"":14.45247,""Continent"":""Europe"",""ID"":16581,""xmax"":null,""xmin"":null,""ymax"":null,""ymin"":null,""precision"":23774,""RT90centrE"":1425353,""RT90centrN"":6694634,""Code"":""SE-2021""}","{""coordinateUncertaintyInMeters"":23774,""locationDisplayLabel"":""Nås""}"
swe-virtual-herbarium,socken,61.27247,15.263860000000001,Ore,"{""District"":""Ore"",""Province"":""Dalarna"",""Country"":""Sweden"",""Län"":""Dalarnas län"",""Kommun"":""Rättvik"",""Latitude"":61.27247,""Longitude"":15.26386,""Continent"":""Europe"",""ID"":16582,""xmax"":null,""xmin"":null,""ymax"":null,""ymin"":null,""precision"":36510,""RT90centrE"":1470968,""RT90centrN"":6795348,""Code"":""SE-2031""}","{""coordinateUncertaintyInMeters"":36510,""locationDisplayLabel"":""Ore""}"
swe-virtual-herbarium,socken,61.31766,14.7168,Orsa,"{""District"":""Orsa"",""Province"":""Dalarna"",""Country"":""Sweden"",""Län"":""Dalarnas län"",""Kommun"":""Orsa"",""Latitude"":61.31766,""Longitude"":14.7168,""Continent"":""Europe"",""ID"":16583,""xmax"":null,""xmin"":null,""ymax"":null,""ymin"":null,""precision"":34069,""RT90centrE"":1441707,""RT90centrN"":6800748,""Code"":""SE-2034""}","{""coordinateUncertaintyInMeters"":34069,""locationDisplayLabel"":""Orsa""}"
swe-virtual-herbarium,socken,60.973180000000006,15.32518,Rättvik,"{""District"":""Rättvik"",""Province"":""Dalarna"",""Country"":""Sweden"",""Län"":""Dalarnas län"",""Kommun"":""Rättvik"",""Latitude"":60.97318,""Longitude"":15.32518,""Continent"":""Europe"",""ID"":16584,""xmax"":null,""xmin"":null,""ymax"":null,""ymin"":null,""precision"":32414,""RT90centrE"":1474011,""RT90centrN"":6761972,""Code"":""SE-2031""}","{""coordinateUncertaintyInMeters"":32414,""locationDisplayLabel"":""Rättvik""}"
swe-virtual-herbarium,socken,60.77534,14.80301,Siljansnäs,"{""District"":""Siljansnäs"",""Province"":""Dalarna"",""Country"":""Sweden"",""Län"":""Dalarnas län"",""Kommun"":""Leksand"",""Latitude"":60.77534,""Longitude"":14.80301,""Continent"":""Europe"",""ID"":16585,""xmax"":null,""xmin"":null,""ymax"":null,""ymin"":null,""precision"":22134,""RT90centrE"":1445398,""RT90centrN"":6740249,""Code"":""SE-2029""}","{""coordinateUncertaintyInMeters"":22134,""locationDisplayLabel"":""Siljansnäs""}"
swe-virtual-herbarium,socken,60.34059,15.50544,Silvberg,"{""District"":""Silvberg"",""Province"":""Dalarna"",""Country"":""Sweden"",""Län"":""Dalarnas län"",""Kommun"":""Säter"",""Latitude"":60.34059,""Longitude"":15.50544,""Continent"":""Europe"",""ID"":16586,""xmax"":null,""xmin"":null,""ymax"":null,""ymin"":null,""precision"":14840,""RT90centrE"":1481838,""RT90centrN"":6688537,""Code"":""SE-2082""}","{""coordinateUncertaintyInMeters"":14840,""locationDisplayLabel"":""Silvberg""}"
swe-virtual-herbarium,socken,60.81136,14.455210000000001,Sollerön,"{""District"":""Sollerön"",""Province"":""Dalarna"",""Country"":""Sweden"",""Län"":""Dalarnas län"",""Kommun"":""Mora"",""Latitude"":60.81136,""Longitude"":14.45521,""Continent"":""Europe"",""ID"":16587,""xmax"":null,""xmin"":null,""ymax"":null,""ymin"":null,""precision"":22414,""RT90centrE"":1426531,""RT90centrN"":6744602,""Code"":""SE-2062""}","{""coordinateUncertaintyInMeters"":22414,""locationDisplayLabel"":""Sollerön""}"
swe-virtual-herbarium,socken,60.653009999999995,15.57925,Stora Kopparberg,"{""District"":""Stora Kopparberg"",""Province"":""Dalarna"",""Country"":""Sweden"",""Län"":""Dalarnas län"",""Kommun"":""Falun"",""Latitude"":60.65301,""Longitude"":15.57925,""Continent"":""Europe"",""ID"":16588,""xmax"":null,""xmin"":null,""ymax"":null,""ymin"":null,""precision"":15236,""RT90centrE"":1487646,""RT90centrN"":6726222,""Code"":""SE-2080""}","{""coordinateUncertaintyInMeters"":15236,""locationDisplayLabel"":""Stora Kopparberg""}"
swe-virtual-herbarium,socken,60.464169999999996,15.88724,Stora Skedvi,"{""District"":""Stora Skedvi"",""Province"":""Dalarna"",""Country"":""Sweden"",""Län"":""Dalarnas län"",""Kommun"":""Säter"",""Latitude"":60.46417,""Longitude"":15.88724,""Continent"":""Europe"",""ID"":16589,""xmax"":null,""xmin"":null,""ymax"":null,""ymin"":null,""precision"":21268,""RT90centrE"":1504519,""RT90centrN"":6705161,""Code"":""SE-2082""}","{""coordinateUncertaintyInMeters"":21268,""locationDisplayLabel"":""Stora Skedvi""}"
swe-virtual-herbarium,socken,60.440380000000005,15.32129,Stora Tuna,"{""District"":""Stora Tuna"",""Province"":""Dalarna"",""Country"":""Sweden"",""Län"":""Dalarnas län"",""Kommun"":""Borlänge"",""Latitude"":60.44038,""Longitude"":15.32129,""Continent"":""Europe"",""ID"":16590,""xmax"":null,""xmin"":null,""ymax"":null,""ymin"":null,""precision"":22191,""RT90centrE"":1473363,""RT90centrN"":6702607,""Code"":""SE-2081""}","{""coordinateUncertaintyInMeters"":22191,""locationDisplayLabel"":""Stora Tuna""}"
swe-virtual-herbarium,socken,60.65035,15.95785,Sundborn,"{""District"":""Sundborn"",""Province"":""Dalarna"",""Country"":""Sweden"",""Län"":""Dalarnas län"",""Kommun"":""Falun"",""Latitude"":60.65035,""Longitude"":15.95785,""Continent"":""Europe"",""ID"":16591,""xmax"":null,""xmin"":null,""ymax"":null,""ymin"":null,""precision"":18447,""RT90centrE"":1508356,""RT90centrN"":6725913,""Code"":""SE-2080""}","{""coordinateUncertaintyInMeters"":18447,""locationDisplayLabel"":""Sundborn""}"
swe-virtual-herbarium,socken,60.93489,16.086289999999998,Svartnäs,"{""District"":""Svartnäs"",""Province"":""Dalarna"",""Country"":""Sweden"",""Län"":""Dalarnas län"",""Kommun"":""Falun"",""Latitude"":60.93489,""Longitude"":16.08629,""Continent"":""Europe"",""ID"":16592,""xmax"":null,""xmin"":null,""ymax"":null,""ymin"":null,""precision"":13507,""RT90centrE"":1515246,""RT90centrN"":6757642,""Code"":""SE-2080""}","{""coordinateUncertaintyInMeters"":13507,""locationDisplayLabel"":""Svartnäs""}"
swe-virtual-herbarium,socken,60.77585,16.03078,Svärdsjö,"{""District"":""Svärdsjö"",""Province"":""Dalarna"",""Country"":""Sweden"",""Län"":""Dalarnas län"",""Kommun"":""Falun"",""Latitude"":60.77585,""Longitude"":16.03078,""Continent"":""Europe"",""ID"":16593,""xmax"":null,""xmin"":null,""ymax"":null,""ymin"":null,""precision"":24979,""RT90centrE"":1512297,""RT90centrN"":6739909,""Code"":""SE-2080""}","{""coordinateUncertaintyInMeters"":24979,""locationDisplayLabel"":""Svärdsjö""}"
swe-virtual-herbarium,socken,60.139219999999995,14.439720000000001,Säfsnäs,"{""District"":""Säfsnäs"",""Province"":""Dalarna"",""Country"":""Sweden"",""Län"":""Dalarnas län"",""Kommun"":""Ludvika"",""Latitude"":60.13922,""Longitude"":14.43972,""Continent"":""Europe"",""ID"":16594,""xmax"":null,""xmin"":null,""ymax"":null,""ymin"":null,""precision"":22152,""RT90centrE"":1424135,""RT90centrN"":6669739,""Code"":""SE-2085""}","{""coordinateUncertaintyInMeters"":22152,""locationDisplayLabel"":""Säfsnäs""}"
swe-virtual-herbarium,socken,61.65002,13.00675,Särna,"{""District"":""Särna"",""Province"":""Dalarna"",""Country"":""Sweden"",""Län"":""Dalarnas län"",""Kommun"":""Älvdalen"",""Latitude"":61.65002,""Longitude"":13.00675,""Continent"":""Europe"",""ID"":16595,""xmax"":null,""xmin"":null,""ymax"":null,""ymin"":null,""precision"":48383,""RT90centrE"":1351726,""RT90centrN"":6840489,""Code"":""SE-2039""}","{""coordinateUncertaintyInMeters"":48383,""locationDisplayLabel"":""Särna""}"
swe-virtual-herbarium,socken,60.308859999999996,15.71809,Säter,"{""District"":""Säter"",""Province"":""Dalarna"",""Country"":""Sweden"",""Län"":""Dalarnas län"",""Kommun"":""Säter"",""Latitude"":60.30886,""Longitude"":15.71809,""Continent"":""Europe"",""ID"":16596,""xmax"":null,""xmin"":null,""ymax"":null,""ymin"":null,""precision"":10587,""RT90centrE"":1495189,""RT90centrN"":6687858,""Code"":""SE-2082""}","{""coordinateUncertaintyInMeters"":10587,""locationDisplayLabel"":""Säter""}"
swe-virtual-herbarium,socken,60.07035,15.5924,Söderbärke,"{""District"":""Söderbärke"",""Province"":""Dalarna"",""Country"":""Sweden"",""Län"":""Dalarnas län"",""Kommun"":""Smedjebacken"",""Latitude"":60.07035,""Longitude"":15.5924,""Continent"":""Europe"",""ID"":16597,""xmax"":null,""xmin"":null,""ymax"":null,""ymin"":null,""precision"":17983,""RT90centrE"":1488155,""RT90centrN"":6661301,""Code"":""SE-2061""}","{""coordinateUncertaintyInMeters"":17983,""locationDisplayLabel"":""Söderbärke""}"
swe-virtual-herbarium,socken,60.487159999999996,15.604779999999998,Torsång,"{""District"":""Torsång"",""Province"":""Dalarna"",""Country"":""Sweden"",""Län"":""Dalarnas län"",""Kommun"":""Borlänge"",""Latitude"":60.48716,""Longitude"":15.60478,""Continent"":""Europe"",""ID"":16598,""xmax"":null,""xmin"":null,""ymax"":null,""ymin"":null,""precision"":18966,""RT90centrE"":1488986,""RT90centrN"":6707737,""Code"":""SE-2081""}","{""coordinateUncertaintyInMeters"":18966,""locationDisplayLabel"":""Torsång""}"
swe-virtual-herbarium,socken,61.237469999999995,13.164660000000001,Transtrand,"{""District"":""Transtrand"",""Province"":""Dalarna"",""Country"":""Sweden"",""Län"":""Dalarnas län"",""Kommun"":""Malung"",""Latitude"":61.23747,""Longitude"":13.16466,""Continent"":""Europe"",""ID"":16599,""xmax"":null,""xmin"":null,""ymax"":null,""ymin"":null,""precision"":31885,""RT90centrE"":1358228,""RT90centrN"":6794192,""Code"":""SE-2023""}","{""coordinateUncertaintyInMeters"":31885,""locationDisplayLabel"":""Transtrand""}"
swe-virtual-herbarium,socken,60.891819999999996,13.895320000000002,Venjan,"{""District"":""Venjan"",""Province"":""Dalarna"",""Country"":""Sweden"",""Län"":""Dalarnas län"",""Kommun"":""Mora"",""Latitude"":60.89182,""Longitude"":13.89532,""Continent"":""Europe"",""ID"":16600,""xmax"":null,""xmin"":null,""ymax"":null,""ymin"":null,""precision"":null,""RT90centrE"":null,""RT90centrN"":null,""Code"":""SE-2062""}","{""coordinateUncertaintyInMeters"":null,""locationDisplayLabel"":""Venjan""}"
swe-virtual-herbarium,socken,60.54336,15.81298,Vika,"{""District"":""Vika"",""Province"":""Dalarna"",""Country"":""Sweden"",""Län"":""Dalarnas län"",""Kommun"":""Falun"",""Latitude"":60.54336,""Longitude"":15.81298,""Continent"":""Europe"",""ID"":16601,""xmax"":null,""xmin"":null,""ymax"":null,""ymin"":null,""precision"":19240,""RT90centrE"":1500433,""RT90centrN"":6713983,""Code"":""SE-2080""}","{""coordinateUncertaintyInMeters"":19240,""locationDisplayLabel"":""Vika""}"
swe-virtual-herbarium,socken,61.203990000000005,14.359110000000001,Våmhus,"{""District"":""Våmhus"",""Province"":""Dalarna"",""Country"":""Sweden"",""Län"":""Dalarnas län"",""Kommun"":""Mora"",""Latitude"":61.20399,""Longitude"":14.35911,""Continent"":""Europe"",""ID"":16602,""xmax"":null,""xmin"":null,""ymax"":null,""ymin"":null,""precision"":41374,""RT90centrE"":1422269,""RT90centrN"":6788456,""Code"":""SE-2062""}","{""coordinateUncertaintyInMeters"":41374,""locationDisplayLabel"":""Våmhus""}"
swe-virtual-herbarium,socken,60.66499,15.230529999999998,Ål,"{""District"":""Ål"",""Province"":""Dalarna"",""Country"":""Sweden"",""Län"":""Dalarnas län"",""Kommun"":""Leksand"",""Latitude"":60.66499,""Longitude"":15.23053,""Continent"":""Europe"",""ID"":16603,""xmax"":null,""xmin"":null,""ymax"":null,""ymin"":null,""precision"":12223,""RT90centrE"":1468585,""RT90centrN"":6727673,""Code"":""SE-2029""}","{""coordinateUncertaintyInMeters"":12223,""locationDisplayLabel"":""Ål""}"
swe-virtual-herbarium,socken,61.332530000000006,13.75334,Älvdalen,"{""District"":""Älvdalen"",""Province"":""Dalarna"",""Country"":""Sweden"",""Län"":""Dalarnas län"",""Kommun"":""Älvdalen"",""Latitude"":61.33253,""Longitude"":13.75334,""Continent"":""Europe"",""ID"":16604,""xmax"":null,""xmin"":null,""ymax"":null,""ymin"":null,""precision"":41134,""RT90centrE"":1390161,""RT90centrN"":6803647,""Code"":""SE-2039""}","{""coordinateUncertaintyInMeters"":41134,""locationDisplayLabel"":""Älvdalen""}"
swe-virtual-herbarium,socken,60.4032,14.01865,Äppelbo,"{""District"":""Äppelbo"",""Province"":""Dalarna"",""Country"":""Sweden"",""Län"":""Dalarnas län"",""Kommun"":""Vansbro"",""Latitude"":60.4032,""Longitude"":14.01865,""Continent"":""Europe"",""ID"":16605,""xmax"":null,""xmin"":null,""ymax"":null,""ymin"":null,""precision"":20591,""RT90centrE"":1401539,""RT90centrN"":6699703,""Code"":""SE-2021""}","{""coordinateUncertaintyInMeters"":20591,""locationDisplayLabel"":""Äppelbo""}"
swe-virtual-herbarium,socken,58.57445,12.58043,Bolstad,"{""District"":""Bolstad"",""Province"":""Dalsland"",""Country"":""Sweden"",""Län"":""Västra Götalands län"",""Kommun"":""Mellerud"",""Latitude"":58.57445,""Longitude"":12.58043,""Continent"":""Europe"",""ID"":16606,""xmax"":null,""xmin"":null,""ymax"":null,""ymin"":null,""precision"":13175,""RT90centrE"":1312420,""RT90centrN"":6499144,""Code"":""SE-1461""}","{""coordinateUncertaintyInMeters"":13175,""locationDisplayLabel"":""Bolstad""}"
swe-virtual-herbarium,socken,58.549330000000005,12.345410000000001,Brålanda,"{""District"":""Brålanda"",""Province"":""Dalsland"",""Country"":""Sweden"",""Län"":""Västra Götalands län"",""Kommun"":""Vänersborg"",""Latitude"":58.54933,""Longitude"":12.34541,""Continent"":""Europe"",""ID"":16607,""xmax"":null,""xmin"":null,""ymax"":null,""ymin"":null,""precision"":8042,""RT90centrE"":1298612,""RT90centrN"":6497031,""Code"":""SE-1487""}","{""coordinateUncertaintyInMeters"":8042,""locationDisplayLabel"":""Brålanda""}"
swe-virtual-herbarium,socken,58.79806,12.1988,Bäcke,"{""District"":""Bäcke"",""Province"":""Dalsland"",""Country"":""Sweden"",""Län"":""Västra Götalands län"",""Kommun"":""Bengtsfors"",""Latitude"":58.79806,""Longitude"":12.1988,""Continent"":""Europe"",""ID"":16608,""xmax"":null,""xmin"":null,""ymax"":null,""ymin"":null,""precision"":5458,""RT90centrE"":1291574,""RT90centrN"":6525160,""Code"":""SE-1460""}","{""coordinateUncertaintyInMeters"":5458,""locationDisplayLabel"":""Bäcke""}"
swe-virtual-herbarium,socken,58.94928,11.89423,Dals-Ed,"{""District"":""Dals-Ed"",""Province"":""Dalsland"",""Country"":""Sweden"",""Län"":""Västra Götalands län"",""Kommun"":""Dals-Ed"",""Latitude"":58.94928,""Longitude"":11.89423,""Continent"":""Europe"",""ID"":16609,""xmax"":null,""xmin"":null,""ymax"":null,""ymin"":null,""precision"":17067,""RT90centrE"":1274969,""RT90centrN"":6542977,""Code"":""SE-1438""}","{""coordinateUncertaintyInMeters"":17067,""locationDisplayLabel"":""Dals-Ed""}"
swe-virtual-herbarium,socken,58.78114,12.29518,Dalskog,"{""District"":""Dalskog"",""Province"":""Dalsland"",""Country"":""Sweden"",""Län"":""Västra Götalands län"",""Kommun"":""Mellerud"",""Latitude"":58.78114,""Longitude"":12.29518,""Continent"":""Europe"",""ID"":16610,""xmax"":null,""xmin"":null,""ymax"":null,""ymin"":null,""precision"":9426,""RT90centrE"":1297042,""RT90centrN"":6522981,""Code"":""SE-1461""}","{""coordinateUncertaintyInMeters"":9426,""locationDisplayLabel"":""Dalskog""}"
swe-virtual-herbarium,socken,59.06649,12.49472,Edsleskog,"{""District"":""Edsleskog"",""Province"":""Dalsland"",""Country"":""Sweden"",""Län"":""Västra Götalands län"",""Kommun"":""Åmål"",""Latitude"":59.06649,""Longitude"":12.49472,""Continent"":""Europe"",""ID"":16611,""xmax"":null,""xmin"":null,""ymax"":null,""ymin"":null,""precision"":8624,""RT90centrE"":1310147,""RT90centrN"":6554156,""Code"":""SE-1492""}","{""coordinateUncertaintyInMeters"":8624,""locationDisplayLabel"":""Edsleskog""}"
swe-virtual-herbarium,socken,58.61838,12.406880000000001,Erikstad,"{""District"":""Erikstad"",""Province"":""Dalsland"",""Country"":""Sweden"",""Län"":""Västra Götalands län"",""Kommun"":""Mellerud"",""Latitude"":58.61838,""Longitude"":12.40688,""Continent"":""Europe"",""ID"":16612,""xmax"":null,""xmin"":null,""ymax"":null,""ymin"":null,""precision"":5532,""RT90centrE"":1302577,""RT90centrN"":6504532,""Code"":""SE-1461""}","{""coordinateUncertaintyInMeters"":5532,""locationDisplayLabel"":""Erikstad""}"
swe-virtual-herbarium,socken,58.45779,12.22211,Frändefors,"{""District"":""Frändefors"",""Province"":""Dalsland"",""Country"":""Sweden"",""Län"":""Västra Götalands län"",""Kommun"":""Vänersborg"",""Latitude"":58.45779,""Longitude"":12.22211,""Continent"":""Europe"",""ID"":16613,""xmax"":null,""xmin"":null,""ymax"":null,""ymin"":null,""precision"":11232,""RT90centrE"":1290895,""RT90centrN"":6487219,""Code"":""SE-1487""}","{""coordinateUncertaintyInMeters"":11232,""locationDisplayLabel"":""Frändefors""}"
swe-virtual-herbarium,socken,58.968090000000004,12.48377,Fröskog,"{""District"":""Fröskog"",""Province"":""Dalsland"",""Country"":""Sweden"",""Län"":""Västra Götalands län"",""Kommun"":""Åmål"",""Latitude"":58.96809,""Longitude"":12.48377,""Continent"":""Europe"",""ID"":16614,""xmax"":null,""xmin"":null,""ymax"":null,""ymin"":null,""precision"":5701,""RT90centrE"":1308974,""RT90centrN"":6543233,""Code"":""SE-1492""}","{""coordinateUncertaintyInMeters"":5701,""locationDisplayLabel"":""Fröskog""}"
swe-virtual-herbarium,socken,58.582359999999994,11.98293,Färgelanda,"{""District"":""Färgelanda"",""Province"":""Dalsland"",""Country"":""Sweden"",""Län"":""Västra Götalands län"",""Kommun"":""Färgelanda"",""Latitude"":58.58236,""Longitude"":11.98293,""Continent"":""Europe"",""ID"":16615,""xmax"":null,""xmin"":null,""ymax"":null,""ymin"":null,""precision"":8997,""RT90centrE"":1277735,""RT90centrN"":6501851,""Code"":""SE-1439""}","{""coordinateUncertaintyInMeters"":8997,""locationDisplayLabel"":""Färgelanda""}"
swe-virtual-herbarium,socken,58.49174,12.44258,Gestad,"{""District"":""Gestad"",""Province"":""Dalsland"",""Country"":""Sweden"",""Län"":""Västra Götalands län"",""Kommun"":""Vänersborg"",""Latitude"":58.49174,""Longitude"":12.44258,""Continent"":""Europe"",""ID"":16616,""xmax"":null,""xmin"":null,""ymax"":null,""ymin"":null,""precision"":11459,""RT90centrE"":1303944,""RT90centrN"":6490334,""Code"":""SE-1487""}","{""coordinateUncertaintyInMeters"":11459,""locationDisplayLabel"":""Gestad""}"
swe-virtual-herbarium,socken,58.78674,11.83437,Gesäter,"{""District"":""Gesäter"",""Province"":""Dalsland"",""Country"":""Sweden"",""Län"":""Västra Götalands län"",""Kommun"":""Dals-Ed"",""Latitude"":58.78674,""Longitude"":11.83437,""Continent"":""Europe"",""ID"":16617,""xmax"":null,""xmin"":null,""ymax"":null,""ymin"":null,""precision"":4431,""RT90centrE"":1270452,""RT90centrN"":6525093,""Code"":""SE-1438""}","{""coordinateUncertaintyInMeters"":4431,""locationDisplayLabel"":""Gesäter""}"
swe-virtual-herbarium,socken,58.64201,12.5854,Grinstad,"{""District"":""Grinstad"",""Province"":""Dalsland"",""Country"":""Sweden"",""Län"":""Västra Götalands län"",""Kommun"":""Mellerud"",""Latitude"":58.64201,""Longitude"":12.5854,""Continent"":""Europe"",""ID"":16618,""xmax"":null,""xmin"":null,""ymax"":null,""ymin"":null,""precision"":8403,""RT90centrE"":1313070,""RT90centrN"":6506652,""Code"":""SE-1461""}","{""coordinateUncertaintyInMeters"":8403,""locationDisplayLabel"":""Grinstad""}"
swe-virtual-herbarium,socken,58.723980000000005,12.3731,Gunnarsnäs,"{""District"":""Gunnarsnäs"",""Province"":""Dalsland"",""Country"":""Sweden"",""Län"":""Västra Götalands län"",""Kommun"":""Mellerud"",""Latitude"":58.72398,""Longitude"":12.3731,""Continent"":""Europe"",""ID"":16619,""xmax"":null,""xmin"":null,""ymax"":null,""ymin"":null,""precision"":4595,""RT90centrE"":1301219,""RT90centrN"":6516386,""Code"":""SE-1461""}","{""coordinateUncertaintyInMeters"":4595,""locationDisplayLabel"":""Gunnarsnäs""}"
swe-virtual-herbarium,socken,58.72416,12.475610000000001,Holm,"{""District"":""Holm"",""Province"":""Dalsland"",""Country"":""Sweden"",""Län"":""Västra Götalands län"",""Kommun"":""Mellerud"",""Latitude"":58.72416,""Longitude"":12.47561,""Continent"":""Europe"",""ID"":16620,""xmax"":null,""xmin"":null,""ymax"":null,""ymin"":null,""precision"":9963,""RT90centrE"":1307154,""RT90centrN"":6516107,""Code"":""SE-1461""}","{""coordinateUncertaintyInMeters"":9963,""locationDisplayLabel"":""Holm""}"
swe-virtual-herbarium,socken,58.9929,12.01731,Håbol,"{""District"":""Håbol"",""Province"":""Dalsland"",""Country"":""Sweden"",""Län"":""Västra Götalands län"",""Kommun"":""Dals-Ed"",""Latitude"":58.9929,""Longitude"":12.01731,""Continent"":""Europe"",""ID"":16621,""xmax"":null,""xmin"":null,""ymax"":null,""ymin"":null,""precision"":9993,""RT90centrE"":1282320,""RT90centrN"":6547421,""Code"":""SE-1438""}","{""coordinateUncertaintyInMeters"":9993,""locationDisplayLabel"":""Håbol""}"
swe-virtual-herbarium,socken,58.64985,12.06377,Högsäter,"{""District"":""Högsäter"",""Province"":""Dalsland"",""Country"":""Sweden"",""Län"":""Västra Götalands län"",""Kommun"":""Färgelanda"",""Latitude"":58.64985,""Longitude"":12.06377,""Continent"":""Europe"",""ID"":16622,""xmax"":null,""xmin"":null,""ymax"":null,""ymin"":null,""precision"":10110,""RT90centrE"":1282852,""RT90centrN"":6509097,""Code"":""SE-1439""}","{""coordinateUncertaintyInMeters"":10110,""locationDisplayLabel"":""Högsäter""}"
swe-virtual-herbarium,socken,58.73106,12.13642,Järbo,"{""District"":""Järbo"",""Province"":""Dalsland"",""Country"":""Sweden"",""Län"":""Västra Götalands län"",""Kommun"":""Färgelanda"",""Latitude"":58.73106,""Longitude"":12.13642,""Continent"":""Europe"",""ID"":16623,""xmax"":null,""xmin"":null,""ymax"":null,""ymin"":null,""precision"":7886,""RT90centrE"":1287562,""RT90centrN"":6517900,""Code"":""SE-1439""}","{""coordinateUncertaintyInMeters"":7886,""locationDisplayLabel"":""Järbo""}"
swe-virtual-herbarium,socken,58.67345,12.49151,Järn,"{""District"":""Järn"",""Province"":""Dalsland"",""Country"":""Sweden"",""Län"":""Västra Götalands län"",""Kommun"":""Mellerud"",""Latitude"":58.67345,""Longitude"":12.49151,""Continent"":""Europe"",""ID"":16624,""xmax"":null,""xmin"":null,""ymax"":null,""ymin"":null,""precision"":5282,""RT90centrE"":1307794,""RT90centrN"":6510416,""Code"":""SE-1461""}","{""coordinateUncertaintyInMeters"":5282,""locationDisplayLabel"":""Järn""}"
swe-virtual-herbarium,socken,59.08841999999999,12.350010000000001,Laxarby,"{""District"":""Laxarby"",""Province"":""Dalsland"",""Country"":""Sweden"",""Län"":""Västra Götalands län"",""Kommun"":""Bengtsfors"",""Latitude"":59.08842,""Longitude"":12.35001,""Continent"":""Europe"",""ID"":16625,""xmax"":null,""xmin"":null,""ymax"":null,""ymin"":null,""precision"":13197,""RT90centrE"":1301980,""RT90centrN"":6557016,""Code"":""SE-1460""}","{""coordinateUncertaintyInMeters"":13197,""locationDisplayLabel"":""Laxarby""}"
swe-virtual-herbarium,socken,58.74823000000001,11.90515,Lerdal,"{""District"":""Lerdal"",""Province"":""Dalsland"",""Country"":""Sweden"",""Län"":""Västra Götalands län"",""Kommun"":""Färgelanda"",""Latitude"":58.74823,""Longitude"":11.90515,""Continent"":""Europe"",""ID"":16626,""xmax"":null,""xmin"":null,""ymax"":null,""ymin"":null,""precision"":6754,""RT90centrE"":1274290,""RT90centrN"":6520568,""Code"":""SE-1439""}","{""coordinateUncertaintyInMeters"":6754,""locationDisplayLabel"":""Lerdal""}"
swe-virtual-herbarium,socken,59.12666,12.64992,Mo,"{""District"":""Mo"",""Province"":""Dalsland"",""Country"":""Sweden"",""Län"":""Västra Götalands län"",""Kommun"":""Åmål"",""Latitude"":59.12666,""Longitude"":12.64992,""Continent"":""Europe"",""ID"":16627,""xmax"":null,""xmin"":null,""ymax"":null,""ymin"":null,""precision"":7397,""RT90centrE"":1319360,""RT90centrN"":6560422,""Code"":""SE-1492""}","{""coordinateUncertaintyInMeters"":7397,""locationDisplayLabel"":""Mo""}"
swe-virtual-herbarium,socken,59.11946999999999,11.858989999999999,Nössemark,"{""District"":""Nössemark"",""Province"":""Dalsland"",""Country"":""Sweden"",""Län"":""Västra Götalands län"",""Kommun"":""Dals-Ed"",""Latitude"":59.11947,""Longitude"":11.85899,""Continent"":""Europe"",""ID"":16628,""xmax"":null,""xmin"":null,""ymax"":null,""ymin"":null,""precision"":13325,""RT90centrE"":1274063,""RT90centrN"":6562032,""Code"":""SE-1438""}","{""coordinateUncertaintyInMeters"":13325,""locationDisplayLabel"":""Nössemark""}"
swe-virtual-herbarium,socken,58.75937,12.01335,Råggärd,"{""District"":""Råggärd"",""Province"":""Dalsland"",""Country"":""Sweden"",""Län"":""Västra Götalands län"",""Kommun"":""Färgelanda"",""Latitude"":58.75937,""Longitude"":12.01335,""Continent"":""Europe"",""ID"":16629,""xmax"":null,""xmin"":null,""ymax"":null,""ymin"":null,""precision"":6131,""RT90centrE"":1280618,""RT90centrN"":6521447,""Code"":""SE-1439""}","{""coordinateUncertaintyInMeters"":6131,""locationDisplayLabel"":""Råggärd""}"
swe-virtual-herbarium,socken,58.69341,11.97145,Rännelanda,"{""District"":""Rännelanda"",""Province"":""Dalsland"",""Country"":""Sweden"",""Län"":""Västra Götalands län"",""Kommun"":""Färgelanda"",""Latitude"":58.69341,""Longitude"":11.97145,""Continent"":""Europe"",""ID"":16630,""xmax"":null,""xmin"":null,""ymax"":null,""ymin"":null,""precision"":6313,""RT90centrE"":1277775,""RT90centrN"":6514247,""Code"":""SE-1439""}","{""coordinateUncertaintyInMeters"":6313,""locationDisplayLabel"":""Rännelanda""}"
swe-virtual-herbarium,socken,58.83582,11.93861,Rölanda,"{""District"":""Rölanda"",""Province"":""Dalsland"",""Country"":""Sweden"",""Län"":""Västra Götalands län"",""Kommun"":""Dals-Ed"",""Latitude"":58.83582,""Longitude"":11.93861,""Continent"":""Europe"",""ID"":16631,""xmax"":null,""xmin"":null,""ymax"":null,""ymin"":null,""precision"":8161,""RT90centrE"":1276790,""RT90centrN"":6530202,""Code"":""SE-1438""}","{""coordinateUncertaintyInMeters"":8161,""locationDisplayLabel"":""Rölanda""}"
swe-virtual-herbarium,socken,58.79435,12.479410000000001,Skållerud,"{""District"":""Skållerud"",""Province"":""Dalsland"",""Country"":""Sweden"",""Län"":""Västra Götalands län"",""Kommun"":""Mellerud"",""Latitude"":58.79435,""Longitude"":12.47941,""Continent"":""Europe"",""ID"":16632,""xmax"":null,""xmin"":null,""ymax"":null,""ymin"":null,""precision"":9821,""RT90centrE"":1307761,""RT90centrN"":6523907,""Code"":""SE-1461""}","{""coordinateUncertaintyInMeters"":9821,""locationDisplayLabel"":""Skållerud""}"
swe-virtual-herbarium,socken,58.9481,12.22954,Steneby,"{""District"":""Steneby"",""Province"":""Dalsland"",""Country"":""Sweden"",""Län"":""Västra Götalands län"",""Kommun"":""Bengtsfors"",""Latitude"":58.9481,""Longitude"":12.22954,""Continent"":""Europe"",""ID"":16633,""xmax"":null,""xmin"":null,""ymax"":null,""ymin"":null,""precision"":9908,""RT90centrE"":1294242,""RT90centrN"":6541763,""Code"":""SE-1460""}","{""coordinateUncertaintyInMeters"":9908,""locationDisplayLabel"":""Steneby""}"
swe-virtual-herbarium,socken,58.57689,12.216280000000001,Sundals-Ryr,"{""District"":""Sundals-Ryr"",""Province"":""Dalsland"",""Country"":""Sweden"",""Län"":""Västra Götalands län"",""Kommun"":""Vänersborg"",""Latitude"":58.57689,""Longitude"":12.21628,""Continent"":""Europe"",""ID"":16634,""xmax"":null,""xmin"":null,""ymax"":null,""ymin"":null,""precision"":7347,""RT90centrE"":1291264,""RT90centrN"":6500492,""Code"":""SE-1487""}","{""coordinateUncertaintyInMeters"":7347,""locationDisplayLabel"":""Sundals-Ryr""}"
swe-virtual-herbarium,socken,59.17977,12.486180000000001,Svanskog,"{""District"":""Svanskog"",""Province"":""Dalsland"",""Country"":""Sweden"",""Län"":""Värmlands län"",""Kommun"":""Säffle"",""Latitude"":59.17977,""Longitude"":12.48618,""Continent"":""Europe"",""ID"":16635,""xmax"":null,""xmin"":null,""ymax"":null,""ymin"":null,""precision"":11035,""RT90centrE"":1312831,""RT90centrN"":6567874,""Code"":""SE-1785""}","{""coordinateUncertaintyInMeters"":11035,""locationDisplayLabel"":""Svanskog""}"
swe-virtual-herbarium,socken,58.90473000000001,12.372710000000001,Tisselskog,"{""District"":""Tisselskog"",""Province"":""Dalsland"",""Country"":""Sweden"",""Län"":""Västra Götalands län"",""Kommun"":""Bengtsfors"",""Latitude"":58.90473,""Longitude"":12.37271,""Continent"":""Europe"",""ID"":16636,""xmax"":null,""xmin"":null,""ymax"":null,""ymin"":null,""precision"":11331,""RT90centrE"":1302229,""RT90centrN"":6536504,""Code"":""SE-1460""}","{""coordinateUncertaintyInMeters"":11331,""locationDisplayLabel"":""Tisselskog""}"
swe-virtual-herbarium,socken,58.48843000000001,11.94636,Torp,"{""District"":""Torp"",""Province"":""Dalsland"",""Country"":""Sweden"",""Län"":""Västra Götalands län"",""Kommun"":""Färgelanda"",""Latitude"":58.48843,""Longitude"":11.94636,""Continent"":""Europe"",""ID"":16637,""xmax"":null,""xmin"":null,""ymax"":null,""ymin"":null,""precision"":9463,""RT90centrE"":1275008,""RT90centrN"":6491520,""Code"":""SE-1439""}","{""coordinateUncertaintyInMeters"":9463,""locationDisplayLabel"":""Torp""}"
swe-virtual-herbarium,socken,59.1689,11.99799,Torrskog,"{""District"":""Torrskog"",""Province"":""Dalsland"",""Country"":""Sweden"",""Län"":""Västra Götalands län"",""Kommun"":""Bengtsfors"",""Latitude"":59.1689,""Longitude"":11.99799,""Continent"":""Europe"",""ID"":16638,""xmax"":null,""xmin"":null,""ymax"":null,""ymin"":null,""precision"":11903,""RT90centrE"":1282329,""RT90centrN"":6567071,""Code"":""SE-1460""}","{""coordinateUncertaintyInMeters"":11903,""locationDisplayLabel"":""Torrskog""}"
swe-virtual-herbarium,socken,58.9346,12.62998,Tydje,"{""District"":""Tydje"",""Province"":""Dalsland"",""Country"":""Sweden"",""Län"":""Västra Götalands län"",""Kommun"":""Åmål"",""Latitude"":58.9346,""Longitude"":12.62998,""Continent"":""Europe"",""ID"":16639,""xmax"":null,""xmin"":null,""ymax"":null,""ymin"":null,""precision"":4920,""RT90centrE"":1317203,""RT90centrN"":6539097,""Code"":""SE-1492""}","{""coordinateUncertaintyInMeters"":4920,""locationDisplayLabel"":""Tydje""}"
