source,layer,name,lat,lon,addendum_json_gbif,addendum_json_georg
GBIF,uppsala-botany,"Elsas hembageri, Tokenäs",57.3191700,16.9983300,"{""institutionCode"":""UPS"",""collectionCode"":""BOT"",""occurrenceID"":""UPS:BOT:A-000977"",""catalogNumber"":""A-000977"",""continent"":""Europe"",""country"":""Sweden"",""stateProvince"":""Öland"",""county"":""Böda"",""locality"":""at the beach 100 m SW of Elsas hembageri, c. 400 m SSW of Tokenäs  lighthouse"",""decimalLatitude"":""57.3191700"",""decimalLongitude"":""16.9983300""}","{""locationDisplayLabel"":""Elsas hembageri, Tokenäs"",""interpretedTokens"":[""Elsas hembageri"",""Tokenäs""]}"
GBIF,uppsala-botany,Blåbergsholmen,58.2538900,11.4458300,"{""institutionCode"":""UPS"",""collectionCode"":""BOT"",""occurrenceID"":""UPS:BOT:A-529077"",""catalogNumber"":""A-529077"",""continent"":""Europe"",""country"":""Sweden"",""stateProvince"":""Bohuslän"",""county"":""Skaftö"",""locality"":""Blåbergsholmen"",""decimalLatitude"":""58.2538900"",""decimalLongitude"":""11.4458300""}","{""locationDisplayLabel"":""Blåbergsholmen"",""interpretedTokens"":[""Blåbergsholmen""]}"
GBIF,uppsala-botany,"Stora, Håskär",58.5333300,11.1783300,"{""institutionCode"":""UPS"",""collectionCode"":""BOT"",""occurrenceID"":""UPS:BOT:A-529141"",""catalogNumber"":""A-529141"",""continent"":""Europe"",""country"":""Sweden"",""stateProvince"":""Bohuslän"",""county"":""Tanum"",""locality"":""Stora Håskär, hamnen"",""decimalLatitude"":""58.5333300"",""decimalLongitude"":""11.1783300""}","{""locationDisplayLabel"":""Stora, Håskär"",""interpretedTokens"":[""Stora"",""Håskär""]}"
GBIF,uppsala-botany,"Grundsund, Svenningeskär",58.2166700,11.4000000,"{""institutionCode"":""UPS"",""collectionCode"":""BOT"",""occurrenceID"":""UPS:BOT:A-529462"",""catalogNumber"":""A-529462"",""continent"":""Europe"",""country"":""Sweden"",""stateProvince"":""Bohuslän"",""county"":""Skaftö"",""locality"":""Grundsund, Svenningeskär"",""decimalLatitude"":""58.2166700"",""decimalLongitude"":""11.4000000""}","{""locationDisplayLabel"":""Grundsund, Svenningeskär"",""interpretedTokens"":[""Grundsund"",""Svenningeskär""]}"
GBIF,uppsala-botany,"Väderö, Storö",58.5847200,11.0805600,"{""institutionCode"":""UPS"",""collectionCode"":""BOT"",""occurrenceID"":""UPS:BOT:A-529692"",""catalogNumber"":""A-529692"",""continent"":""Europe"",""country"":""Sweden"",""stateProvince"":""Bohuslän"",""county"":""Kville"",""locality"":""Trål mot lilla skäret NO om Väderö Storö"",""decimalLatitude"":""58.5847200"",""decimalLongitude"":""11.0805600""}","{""locationDisplayLabel"":""Väderö, Storö"",""interpretedTokens"":[""Väderö"",""Storö""]}"
GBIF,uppsala-botany,Gäsö,58.2500000,11.4241700,"{""institutionCode"":""UPS"",""collectionCode"":""BOT"",""occurrenceID"":""UPS:BOT:A-529699"",""catalogNumber"":""A-529699"",""continent"":""Europe"",""country"":""Sweden"",""stateProvince"":""Bohuslän"",""county"":""Skaftö"",""locality"":""Gäsö NO-ända, grundare"",""decimalLatitude"":""58.2500000"",""decimalLongitude"":""11.4241700""}","{""locationDisplayLabel"":""Gäsö"",""interpretedTokens"":[""Gäsö""]}"
GBIF,uppsala-botany,"Göteborgs inlopp, Hunneskär",57.7000000,11.8333300,"{""institutionCode"":""UPS"",""collectionCode"":""BOT"",""occurrenceID"":""UPS:BOT:A-530006"",""catalogNumber"":""A-530006"",""continent"":""Europe"",""country"":""Sweden"",""stateProvince"":""Bohuslän"",""county"":null,""locality"":""Göteborgs inlopp vid Hunneskär"",""decimalLatitude"":""57.7000000"",""decimalLongitude"":""11.8333300""}","{""locationDisplayLabel"":""Göteborgs inlopp, Hunneskär"",""interpretedTokens"":[""Göteborgs inlopp"",""Hunneskär""]}"
GBIF,uppsala-botany,Hållskäret,60.2166700,18.8666700,"{""institutionCode"":""UPS"",""collectionCode"":""BOT"",""occurrenceID"":""UPS:BOT:A-530297"",""catalogNumber"":""A-530297"",""continent"":""Europe"",""country"":""Sweden"",""stateProvince"":""Uppland"",""county"":""Singö"",""locality"":""Hållskäret"",""decimalLatitude"":""60.2166700"",""decimalLongitude"":""18.8666700""}","{""locationDisplayLabel"":""Hållskäret"",""interpretedTokens"":[""Hållskäret""]}"
GBIF,uppsala-botany,"Öregrund, Fl. Klipp",60.3436100,18.4491700,"{""institutionCode"":""UPS"",""collectionCode"":""BOT"",""occurrenceID"":""UPS:BOT:A-530658"",""catalogNumber"":""A-530658"",""continent"":""Europe"",""country"":""Sweden"",""stateProvince"":""Uppland"",""county"":""Öregrund"",""locality"":""Öregrund, Fl. Klipp"",""decimalLatitude"":""60.3436100"",""decimalLongitude"":""18.4491700""}","{""locationDisplayLabel"":""Öregrund, Fl. Klipp"",""interpretedTokens"":[""Öregrund"",""Fl. Klipp""]}"
GBIF,uppsala-botany,"Öregrund, Trutbådan",60.3166700,18.6333300,"{""institutionCode"":""UPS"",""collectionCode"":""BOT"",""occurrenceID"":""UPS:BOT:A-530671"",""catalogNumber"":""A-530671"",""continent"":""Europe"",""country"":""Sweden"",""stateProvince"":""Uppland"",""county"":""Gräsö"",""locality"":""Öregrund, Trutbådan"",""decimalLatitude"":""60.3166700"",""decimalLongitude"":""18.6333300""}","{""locationDisplayLabel"":""Öregrund, Trutbådan"",""interpretedTokens"":[""Öregrund"",""Trutbådan""]}"
GBIF,uppsala-botany,"Ornöbådarna, Lillbådan",60.6758300,17.3325000,"{""institutionCode"":""UPS"",""collectionCode"":""BOT"",""occurrenceID"":""UPS:BOT:A-530783"",""catalogNumber"":""A-530783"",""continent"":""Europe"",""country"":""Sweden"",""stateProvince"":""Södermanland"",""county"":""Ornö"",""locality"":""Ornöbådarna, Lillbådan"",""decimalLatitude"":""60.6758300"",""decimalLongitude"":""17.3325000""}","{""locationDisplayLabel"":""Ornöbådarna, Lillbådan"",""interpretedTokens"":[""Ornöbådarna"",""Lillbådan""]}"
GBIF,uppsala-botany,Skogskärsgarpen,60.2752800,18.7277800,"{""institutionCode"":""UPS"",""collectionCode"":""BOT"",""occurrenceID"":""UPS:BOT:A-530788"",""catalogNumber"":""A-530788"",""continent"":""Europe"",""country"":""Sweden"",""stateProvince"":""Uppland"",""county"":""Öregrund"",""locality"":""Skogskärsgarpen, udden mellan bryggan och dykarstället"",""decimalLatitude"":""60.2752800"",""decimalLongitude"":""18.7277800""}","{""locationDisplayLabel"":""Skogskärsgarpen"",""interpretedTokens"":[""Skogskärsgarpen""]}"
GBIF,uppsala-botany,"Öregrund, Vågbrytarna",60.3436100,18.4491700,"{""institutionCode"":""UPS"",""collectionCode"":""BOT"",""occurrenceID"":""UPS:BOT:A-530804"",""catalogNumber"":""A-530804"",""continent"":""Europe"",""country"":""Sweden"",""stateProvince"":""Uppland"",""county"":""Öregrund"",""locality"":""Öregrund, lös vid storm. Vågbrytarna"",""decimalLatitude"":""60.3436100"",""decimalLongitude"":""18.4491700""}","{""locationDisplayLabel"":""Öregrund, Vågbrytarna"",""interpretedTokens"":[""Öregrund"",""Vågbrytarna""]}"
GBIF,uppsala-botany,Öregrund,60.3436100,18.4491700,"{""institutionCode"":""UPS"",""collectionCode"":""BOT"",""occurrenceID"":""UPS:BOT:A-530805"",""catalogNumber"":""A-530805"",""continent"":""Europe"",""country"":""Sweden"",""stateProvince"":""Uppland"",""county"":""Öregrund"",""locality"":""Öregrund"",""decimalLatitude"":""60.3436100"",""decimalLongitude"":""18.4491700""}","{""locationDisplayLabel"":""Öregrund"",""interpretedTokens"":[""Öregrund""]}"
GBIF,uppsala-botany,Grepen,60.4572200,18.2294400,"{""institutionCode"":""UPS"",""collectionCode"":""BOT"",""occurrenceID"":""UPS:BOT:A-530806"",""catalogNumber"":""A-530806"",""continent"":""Europe"",""country"":""Sweden"",""stateProvince"":""Uppland"",""county"":""Hållnäs"",""locality"":""Grepen"",""decimalLatitude"":""60.4572200"",""decimalLongitude"":""18.2294400""}","{""locationDisplayLabel"":""Grepen"",""interpretedTokens"":[""Grepen""]}"
GBIF,uppsala-botany,N.V.A,60.3166700,18.6333300,"{""institutionCode"":""UPS"",""collectionCode"":""BOT"",""occurrenceID"":""UPS:BOT:A-530811"",""catalogNumber"":""A-530811"",""continent"":""Europe"",""country"":""Sweden"",""stateProvince"":""Uppland"",""county"":""Gräsö"",""locality"":""Trutbådan N.V.A vid 7"",""decimalLatitude"":""60.3166700"",""decimalLongitude"":""18.6333300""}","{""locationDisplayLabel"":""N.V.A"",""interpretedTokens"":[""N.V.A""]}"
GBIF,uppsala-botany,Trutbådan,60.3166700,18.6333300,"{""institutionCode"":""UPS"",""collectionCode"":""BOT"",""occurrenceID"":""UPS:BOT:A-530812"",""catalogNumber"":""A-530812"",""continent"":""Europe"",""country"":""Sweden"",""stateProvince"":""Uppland"",""county"":""Gräsö"",""locality"":""Trutbådan, udden"",""decimalLatitude"":""60.3166700"",""decimalLongitude"":""18.6333300""}","{""locationDisplayLabel"":""Trutbådan"",""interpretedTokens"":[""Trutbådan""]}"
GBIF,uppsala-botany,Gåsö,58.2500000,11.4241700,"{""institutionCode"":""UPS"",""collectionCode"":""BOT"",""occurrenceID"":""UPS:BOT:A-530847"",""catalogNumber"":""A-530847"",""continent"":""Europe"",""country"":""Sweden"",""stateProvince"":""Bohuslän"",""county"":""Skaftö"",""locality"":""Gåsö NO"",""decimalLatitude"":""58.2500000"",""decimalLongitude"":""11.4241700""}","{""locationDisplayLabel"":""Gåsö"",""interpretedTokens"":[""Gåsö""]}"
GBIF,uppsala-botany,Storöns NO sida,58.5847200,11.0805600,"{""institutionCode"":""UPS"",""collectionCode"":""BOT"",""occurrenceID"":""UPS:BOT:A-530857"",""catalogNumber"":""A-530857"",""continent"":""Europe"",""country"":""Sweden"",""stateProvince"":""Bohuslän"",""county"":""Kville"",""locality"":""Väderöarna mot lilla skäret på Storöns NO sida"",""decimalLatitude"":""58.5847200"",""decimalLongitude"":""11.0805600""}","{""locationDisplayLabel"":""Storöns NO sida"",""interpretedTokens"":[""Storöns NO sida""]}"
GBIF,uppsala-botany,Kalvöskärs fyr,58.5922200,11.2591700,"{""institutionCode"":""UPS"",""collectionCode"":""BOT"",""occurrenceID"":""UPS:BOT:A-530863"",""catalogNumber"":""A-530863"",""continent"":""Europe"",""country"":""Sweden"",""stateProvince"":""Bohuslän"",""county"":""Skaftö"",""locality"":""V om Kalvöskärs fyr, vid 1.8 grundet"",""decimalLatitude"":""58.5922200"",""decimalLongitude"":""11.2591700""}","{""locationDisplayLabel"":""Kalvöskärs fyr"",""interpretedTokens"":[""Kalvöskärs fyr""]}"
GBIF,uppsala-botany,"Råttholen, Marholmen",58.2541700,11.4638900,"{""institutionCode"":""UPS"",""collectionCode"":""BOT"",""occurrenceID"":""UPS:BOT:A-530924"",""catalogNumber"":""A-530924"",""continent"":""Europe"",""country"":""Sweden"",""stateProvince"":""Bohuslän"",""county"":""Skaftö"",""locality"":""Mellan Råttholen och Marholmen"",""decimalLatitude"":""58.2541700"",""decimalLongitude"":""11.4638900""}","{""locationDisplayLabel"":""Råttholen, Marholmen"",""interpretedTokens"":[""Råttholen"",""Marholmen""]}"
GBIF,uppsala-botany,"Kristinebergsområdet, Smedjan",58.2694400,11.3700000,"{""institutionCode"":""UPS"",""collectionCode"":""BOT"",""occurrenceID"":""UPS:BOT:A-530926"",""catalogNumber"":""A-530926"",""continent"":""Europe"",""country"":""Sweden"",""stateProvince"":""Bohuslän"",""county"":""Skaftö"",""locality"":""Kristinebergsområdet, Smedjan"",""decimalLatitude"":""58.2694400"",""decimalLongitude"":""11.3700000""}","{""locationDisplayLabel"":""Kristinebergsområdet, Smedjan"",""interpretedTokens"":[""Kristinebergsområdet"",""Smedjan""]}"
GBIF,uppsala-botany,Väderöarna,58.5500000,11.0833300,"{""institutionCode"":""UPS"",""collectionCode"":""BOT"",""occurrenceID"":""UPS:BOT:A-530937"",""catalogNumber"":""A-530937"",""continent"":""Europe"",""country"":""Sweden"",""stateProvince"":""Bohuslän"",""county"":""Skaftö"",""locality"":""S Väderöarna"",""decimalLatitude"":""58.5500000"",""decimalLongitude"":""11.0833300""}","{""locationDisplayLabel"":""Väderöarna"",""interpretedTokens"":[""Väderöarna""]}"
GBIF,uppsala-botany,Bonden,58.2166700,11.3000000,"{""institutionCode"":""UPS"",""collectionCode"":""BOT"",""occurrenceID"":""UPS:BOT:A-530938"",""catalogNumber"":""A-530938"",""continent"":""Europe"",""country"":""Sweden"",""stateProvince"":""Bohuslän"",""county"":""Skaftö"",""locality"":""Bonden"",""decimalLatitude"":""58.2166700"",""decimalLongitude"":""11.3000000""}","{""locationDisplayLabel"":""Bonden"",""interpretedTokens"":[""Bonden""]}"
GBIF,uppsala-botany,Gåsö,58.2500000,11.4241700,"{""institutionCode"":""UPS"",""collectionCode"":""BOT"",""occurrenceID"":""UPS:BOT:A-530945"",""catalogNumber"":""A-530945"",""continent"":""Europe"",""country"":""Sweden"",""stateProvince"":""Bohuslän"",""county"":""Skaftö"",""locality"":""Gåsö NO-ända"",""decimalLatitude"":""58.2500000"",""decimalLongitude"":""11.4241700""}","{""locationDisplayLabel"":""Gåsö"",""interpretedTokens"":[""Gåsö""]}"
GBIF,uppsala-botany,Getryggen,58.5722200,11.2263900,"{""institutionCode"":""UPS"",""collectionCode"":""BOT"",""occurrenceID"":""UPS:BOT:A-530952"",""catalogNumber"":""A-530952"",""continent"":""Europe"",""country"":""Sweden"",""stateProvince"":""Bohuslän"",""county"":""Kville"",""locality"":""Getryggen"",""decimalLatitude"":""58.5722200"",""decimalLongitude"":""11.2263900""}","{""locationDisplayLabel"":""Getryggen"",""interpretedTokens"":[""Getryggen""]}"
GBIF,uppsala-botany,Kristinebergs skärgård,58.2500000,11.4241700,"{""institutionCode"":""UPS"",""collectionCode"":""BOT"",""occurrenceID"":""UPS:BOT:A-530960"",""catalogNumber"":""A-530960"",""continent"":""Europe"",""country"":""Sweden"",""stateProvince"":""Bohuslän"",""county"":""Skaftö"",""locality"":""Kristinebergs skärgård, Gåsö nordostända"",""decimalLatitude"":""58.2500000"",""decimalLongitude"":""11.4241700""}","{""locationDisplayLabel"":""Kristinebergs skärgård"",""interpretedTokens"":[""Kristinebergs skärgård""]}"
GBIF,uppsala-botany,Kalvöskärs,58.5930600,11.2513900,"{""institutionCode"":""UPS"",""collectionCode"":""BOT"",""occurrenceID"":""UPS:BOT:A-530965"",""catalogNumber"":""A-530965"",""continent"":""Europe"",""country"":""Sweden"",""stateProvince"":""Bohuslän"",""county"":""Tanum"",""locality"":""V om Kalvöskärs fyr"",""decimalLatitude"":""58.5930600"",""decimalLongitude"":""11.2513900""}","{""locationDisplayLabel"":""Kalvöskärs"",""interpretedTokens"":[""Kalvöskärs""]}"
GBIF,uppsala-botany,"Väderöarna, Storöns NO sida",58.5847200,11.0805600,"{""institutionCode"":""UPS"",""collectionCode"":""BOT"",""occurrenceID"":""UPS:BOT:A-530968"",""catalogNumber"":""A-530968"",""continent"":""Europe"",""country"":""Sweden"",""stateProvince"":""Bohuslän"",""county"":""Kville"",""locality"":""Väderöarna, trål mot lilla skäret på Storöns NO sida"",""decimalLatitude"":""58.5847200"",""decimalLongitude"":""11.0805600""}","{""locationDisplayLabel"":""Väderöarna, Storöns NO sida"",""interpretedTokens"":[""Väderöarna"",""Storöns NO sida""]}"
GBIF,uppsala-botany,Mosseberget,58.2569400,11.3944400,"{""institutionCode"":""UPS"",""collectionCode"":""BOT"",""occurrenceID"":""UPS:BOT:A-530971"",""catalogNumber"":""A-530971"",""continent"":""Europe"",""country"":""Sweden"",""stateProvince"":""Bohuslän"",""county"":""Skaftö"",""locality"":""Mosseberget"",""decimalLatitude"":""58.2569400"",""decimalLongitude"":""11.3944400""}","{""locationDisplayLabel"":""Mosseberget"",""interpretedTokens"":[""Mosseberget""]}"
GBIF,uppsala-botany,Örnhökaknösen,55.4333300,14.2666700,"{""institutionCode"":""UPS"",""collectionCode"":""BOT"",""occurrenceID"":""UPS:BOT:A-531001"",""catalogNumber"":""A-531001"",""continent"":""Europe"",""country"":""Sweden"",""stateProvince"":""Skåne"",""county"":""Östra Hoby"",""locality"":""Örnhökaknösen"",""decimalLatitude"":""55.4333300"",""decimalLongitude"":""14.2666700""}","{""locationDisplayLabel"":""Örnhökaknösen"",""interpretedTokens"":[""Örnhökaknösen""]}"
GBIF,uppsala-botany,Bonden,59.2194400,11.3166700,"{""institutionCode"":""UPS"",""collectionCode"":""BOT"",""occurrenceID"":""UPS:BOT:A-531031"",""catalogNumber"":""A-531031"",""continent"":""Europe"",""country"":""Sweden"",""stateProvince"":""Bohuslän"",""county"":""Skaftö"",""locality"":""Rum sjö innanför Bonden"",""decimalLatitude"":""59.2194400"",""decimalLongitude"":""11.3166700""}","{""locationDisplayLabel"":""Bonden"",""interpretedTokens"":[""Bonden""]}"
GBIF,uppsala-botany,Mosseberget,58.2569400,11.3944400,"{""institutionCode"":""UPS"",""collectionCode"":""BOT"",""occurrenceID"":""UPS:BOT:A-531033"",""catalogNumber"":""A-531033"",""continent"":""Europe"",""country"":""Sweden"",""stateProvince"":""Bohuslän"",""county"":""Skaftö"",""locality"":""Från Mosseberget"",""decimalLatitude"":""58.2569400"",""decimalLongitude"":""11.3944400""}","{""locationDisplayLabel"":""Mosseberget"",""interpretedTokens"":[""Mosseberget""]}"
GBIF,uppsala-botany,Stora Bornö,58.3833300,11.5833300,"{""institutionCode"":""UPS"",""collectionCode"":""BOT"",""occurrenceID"":""UPS:BOT:A-531045"",""catalogNumber"":""A-531045"",""continent"":""Europe"",""country"":""Sweden"",""stateProvince"":""Bohuslän"",""county"":""Brastad"",""locality"":""Stora Bornö"",""decimalLatitude"":""58.3833300"",""decimalLongitude"":""11.5833300""}","{""locationDisplayLabel"":""Stora Bornö"",""interpretedTokens"":[""Stora Bornö""]}"
GBIF,uppsala-botany,Strömmarna,58.2388900,11.5500000,"{""institutionCode"":""UPS"",""collectionCode"":""BOT"",""occurrenceID"":""UPS:BOT:A-531078"",""catalogNumber"":""A-531078"",""continent"":""Europe"",""country"":""Sweden"",""stateProvince"":""Bohuslän"",""county"":""Dragsmark"",""locality"":""Strömmarna, simning vid luftkabeln"",""decimalLatitude"":""58.2388900"",""decimalLongitude"":""11.5500000""}","{""locationDisplayLabel"":""Strömmarna"",""interpretedTokens"":[""Strömmarna""]}"
GBIF,uppsala-botany,"Kristineberg, Sven Lovéns brygga",58.2505600,11.4569400,"{""institutionCode"":""UPS"",""collectionCode"":""BOT"",""occurrenceID"":""UPS:BOT:A-531091"",""catalogNumber"":""A-531091"",""continent"":""Europe"",""country"":""Sweden"",""stateProvince"":""Bohuslän"",""county"":""Skaftö"",""locality"":""Kristineberg, Sven Lovéns brygga"",""decimalLatitude"":""58.2505600"",""decimalLongitude"":""11.4569400""}","{""locationDisplayLabel"":""Kristineberg, Sven Lovéns brygga"",""interpretedTokens"":[""Kristineberg"",""Sven Lovéns brygga""]}"
GBIF,uppsala-botany,"Kristineberg, Blåbergsholmen, Oesophagus",58.2538900,11.4458300,"{""institutionCode"":""UPS"",""collectionCode"":""BOT"",""occurrenceID"":""UPS:BOT:A-531100"",""catalogNumber"":""A-531100"",""continent"":""Europe"",""country"":""Sweden"",""stateProvince"":""Bohuslän"",""county"":""Skaftö"",""locality"":""Kristineberg, Blåbergsholmen på insidan nära Oesophagus"",""decimalLatitude"":""58.2538900"",""decimalLongitude"":""11.4458300""}","{""locationDisplayLabel"":""Kristineberg, Blåbergsholmen, Oesophagus"",""interpretedTokens"":[""Kristineberg"",""Blåbergsholmen"",""Oesophagus""]}"
GBIF,uppsala-botany,"Kristineberg, Sven Lovéns hamn",58.2505600,11.4569400,"{""institutionCode"":""UPS"",""collectionCode"":""BOT"",""occurrenceID"":""UPS:BOT:A-531103"",""catalogNumber"":""A-531103"",""continent"":""Europe"",""country"":""Sweden"",""stateProvince"":""Bohuslän"",""county"":""Skaftö"",""locality"":""Kristineberg, Sven Lovéns hamn"",""decimalLatitude"":""58.2505600"",""decimalLongitude"":""11.4569400""}","{""locationDisplayLabel"":""Kristineberg, Sven Lovéns hamn"",""interpretedTokens"":[""Kristineberg"",""Sven Lovéns hamn""]}"
GBIF,uppsala-botany,Storöns NOsida,58.5847200,11.0805600,"{""institutionCode"":""UPS"",""collectionCode"":""BOT"",""occurrenceID"":""UPS:BOT:A-531111"",""catalogNumber"":""A-531111"",""continent"":""Europe"",""country"":""Sweden"",""stateProvince"":""Bohuslän"",""county"":""Kville"",""locality"":""Väderöarna trål mot lilla skäret på Storöns NOsida"",""decimalLatitude"":""58.5847200"",""decimalLongitude"":""11.0805600""}","{""locationDisplayLabel"":""Storöns NOsida"",""interpretedTokens"":[""Storöns NOsida""]}"
GBIF,uppsala-botany,"Grundet, Blåbergsholmen",58.2538900,11.4458300,"{""institutionCode"":""UPS"",""collectionCode"":""BOT"",""occurrenceID"":""UPS:BOT:A-531112"",""catalogNumber"":""A-531112"",""continent"":""Europe"",""country"":""Sweden"",""stateProvince"":""Bohuslän"",""county"":""Skaftö"",""locality"":""Grundet utanför Blåbergsholmen"",""decimalLatitude"":""58.2538900"",""decimalLongitude"":""11.4458300""}","{""locationDisplayLabel"":""Grundet, Blåbergsholmen"",""interpretedTokens"":[""Grundet"",""Blåbergsholmen""]}"
GBIF,uppsala-botany,Kristineberg,58.2505600,11.4569400,"{""institutionCode"":""UPS"",""collectionCode"":""BOT"",""occurrenceID"":""UPS:BOT:A-531114"",""catalogNumber"":""A-531114"",""continent"":""Europe"",""country"":""Sweden"",""stateProvince"":""Bohuslän"",""county"":""Skaftö"",""locality"":""Kristineberg, På botten i Sven Lovéns hamn"",""decimalLatitude"":""58.2505600"",""decimalLongitude"":""11.4569400""}","{""locationDisplayLabel"":""Kristineberg"",""interpretedTokens"":[""Kristineberg""]}"
GBIF,uppsala-botany,Kristineberg,58.2505600,11.4569400,"{""institutionCode"":""UPS"",""collectionCode"":""BOT"",""occurrenceID"":""UPS:BOT:A-531118"",""catalogNumber"":""A-531118"",""continent"":""Europe"",""country"":""Sweden"",""stateProvince"":""Bohuslän"",""county"":""Skaftö"",""locality"":""Kristineberg"",""decimalLatitude"":""58.2505600"",""decimalLongitude"":""11.4569400""}","{""locationDisplayLabel"":""Kristineberg"",""interpretedTokens"":[""Kristineberg""]}"
GBIF,uppsala-botany,Öregrund,60.3436100,18.4491700,"{""institutionCode"":""UPS"",""collectionCode"":""BOT"",""occurrenceID"":""UPS:BOT:A-531132"",""catalogNumber"":""A-531132"",""continent"":""Europe"",""country"":""Sweden"",""stateProvince"":""Uppland"",""county"":""Öregrund"",""locality"":""Öregrund, hamnen"",""decimalLatitude"":""60.3436100"",""decimalLongitude"":""18.4491700""}","{""locationDisplayLabel"":""Öregrund"",""interpretedTokens"":[""Öregrund""]}"
GBIF,uppsala-botany,Höga,60.4961100,18.7305600,"{""institutionCode"":""UPS"",""collectionCode"":""BOT"",""occurrenceID"":""UPS:BOT:A-531135"",""catalogNumber"":""A-531135"",""continent"":""Europe"",""country"":""Sweden"",""stateProvince"":""Uppland"",""county"":""Gräsö"",""locality"":""Höga [?] Storbådan"",""decimalLatitude"":""60.4961100"",""decimalLongitude"":""18.7305600""}","{""locationDisplayLabel"":""Höga"",""interpretedTokens"":[""Höga""]}"
GBIF,uppsala-botany,Trubådan,60.3166700,18.6333300,"{""institutionCode"":""UPS"",""collectionCode"":""BOT"",""occurrenceID"":""UPS:BOT:A-531136"",""catalogNumber"":""A-531136"",""continent"":""Europe"",""country"":""Sweden"",""stateProvince"":""Uppland"",""county"":""Gräsö"",""locality"":""Trubådan"",""decimalLatitude"":""60.3166700"",""decimalLongitude"":""18.6333300""}","{""locationDisplayLabel"":""Trubådan"",""interpretedTokens"":[""Trubådan""]}"
GBIF,uppsala-botany,"Öregrund, Trubådan",60.3166700,18.6333300,"{""institutionCode"":""UPS"",""collectionCode"":""BOT"",""occurrenceID"":""UPS:BOT:A-531137"",""catalogNumber"":""A-531137"",""continent"":""Europe"",""country"":""Sweden"",""stateProvince"":""Uppland"",""county"":""Gräsö"",""locality"":""Öregrund, Trubådan"",""decimalLatitude"":""60.3166700"",""decimalLongitude"":""18.6333300""}","{""locationDisplayLabel"":""Öregrund, Trubådan"",""interpretedTokens"":[""Öregrund"",""Trubådan""]}"
GBIF,uppsala-botany,Testholmen,58.3166700,11.3833300,"{""institutionCode"":""UPS"",""collectionCode"":""BOT"",""occurrenceID"":""UPS:BOT:A-531140"",""catalogNumber"":""A-531140"",""continent"":""Europe"",""country"":""Sweden"",""stateProvince"":""Bohuslän"",""county"":""Skaftö"",""locality"":""Testholmen"",""decimalLatitude"":""58.3166700"",""decimalLongitude"":""11.3833300""}","{""locationDisplayLabel"":""Testholmen"",""interpretedTokens"":[""Testholmen""]}"
GBIF,uppsala-botany,Gåsöränna,58.2338900,11.4236100,"{""institutionCode"":""UPS"",""collectionCode"":""BOT"",""occurrenceID"":""UPS:BOT:A-531141"",""catalogNumber"":""A-531141"",""continent"":""Europe"",""country"":""Sweden"",""stateProvince"":""Bohuslän"",""county"":""Skaftö"",""locality"":""Gåsöränna"",""decimalLatitude"":""58.2338900"",""decimalLongitude"":""11.4236100""}","{""locationDisplayLabel"":""Gåsöränna"",""interpretedTokens"":[""Gåsöränna""]}"
GBIF,uppsala-botany,Halsaren,60.2227800,18.9255600,"{""institutionCode"":""UPS"",""collectionCode"":""BOT"",""occurrenceID"":""UPS:BOT:A-531148"",""catalogNumber"":""A-531148"",""continent"":""Europe"",""country"":""Sweden"",""stateProvince"":""Uppland"",""county"":""Singö"",""locality"":""Halsaren"",""decimalLatitude"":""60.2227800"",""decimalLongitude"":""18.9255600""}","{""locationDisplayLabel"":""Halsaren"",""interpretedTokens"":[""Halsaren""]}"
GBIF,uppsala-botany,"Stockholms skärgård, Huvudskärs skärgård, Skaten",58.9669400,18.5527800,"{""institutionCode"":""UPS"",""collectionCode"":""BOT"",""occurrenceID"":""UPS:BOT:A-531156"",""catalogNumber"":""A-531156"",""continent"":""Europe"",""country"":""Sweden"",""stateProvince"":""Södermanland"",""county"":""Ornö"",""locality"":""Stockholms skärgård, Huvudskärs skärgård, Skaten"",""decimalLatitude"":""58.9669400"",""decimalLongitude"":""18.5527800""}","{""locationDisplayLabel"":""Stockholms skärgård, Huvudskärs skärgård, Skaten"",""interpretedTokens"":[""Stockholms skärgård"",""Huvudskärs skärgård"",""Skaten""]}"
GBIF,uppsala-botany,Trutbådans sydsida,60.3166700,18.6333300,"{""institutionCode"":""UPS"",""collectionCode"":""BOT"",""occurrenceID"":""UPS:BOT:A-531184"",""catalogNumber"":""A-531184"",""continent"":""Europe"",""country"":""Sweden"",""stateProvince"":""Uppland"",""county"":""Gräsö"",""locality"":""Trutbådans sydsida"",""decimalLatitude"":""60.3166700"",""decimalLongitude"":""18.6333300""}","{""locationDisplayLabel"":""Trutbådans sydsida"",""interpretedTokens"":[""Trutbådans sydsida""]}"
GBIF,uppsala-botany,"Rhodomelaskär, Västerbådan",60.3700000,18.7680600,"{""institutionCode"":""UPS"",""collectionCode"":""BOT"",""occurrenceID"":""UPS:BOT:A-531190"",""catalogNumber"":""A-531190"",""continent"":""Europe"",""country"":""Sweden"",""stateProvince"":""Uppland"",""county"":""Gräsö"",""locality"":""Rhodomelaskär, Västerbådan"",""decimalLatitude"":""60.3700000"",""decimalLongitude"":""18.7680600""}","{""locationDisplayLabel"":""Rhodomelaskär, Västerbådan"",""interpretedTokens"":[""Rhodomelaskär"",""Västerbådan""]}"
GBIF,uppsala-botany,Ettergrunden,60.2261100,18.8761100,"{""institutionCode"":""UPS"",""collectionCode"":""BOT"",""occurrenceID"":""UPS:BOT:A-531191"",""catalogNumber"":""A-531191"",""continent"":""Europe"",""country"":""Sweden"",""stateProvince"":""Uppland"",""county"":""Singö"",""locality"":""S om Ettergrunden"",""decimalLatitude"":""60.2261100"",""decimalLongitude"":""18.8761100""}","{""locationDisplayLabel"":""Ettergrunden"",""interpretedTokens"":[""Ettergrunden""]}"
GBIF,uppsala-botany,"Spättasbådan, Flatholmen",58.2633300,11.4236100,"{""institutionCode"":""UPS"",""collectionCode"":""BOT"",""occurrenceID"":""UPS:BOT:A-531196"",""catalogNumber"":""A-531196"",""continent"":""Europe"",""country"":""Sweden"",""stateProvince"":""Bohuslän"",""county"":""Skaftö"",""locality"":""I mellersta Spättasbådan och Flatholmen"",""decimalLatitude"":""58.2633300"",""decimalLongitude"":""11.4236100""}","{""locationDisplayLabel"":""Spättasbådan, Flatholmen"",""interpretedTokens"":[""Spättasbådan"",""Flatholmen""]}"
GBIF,uppsala-botany,Ljungskile,58.2297200,11.9222200,"{""institutionCode"":""UPS"",""collectionCode"":""BOT"",""occurrenceID"":""UPS:BOT:A-531199"",""catalogNumber"":""A-531199"",""continent"":""Europe"",""country"":""Sweden"",""stateProvince"":""Bohuslän"",""county"":""Ljung"",""locality"":""Ljungskile"",""decimalLatitude"":""58.2297200"",""decimalLongitude"":""11.9222200""}","{""locationDisplayLabel"":""Ljungskile"",""interpretedTokens"":[""Ljungskile""]}"
GBIF,uppsala-botany,Humlesäcken,58.2769400,11.4166700,"{""institutionCode"":""UPS"",""collectionCode"":""BOT"",""occurrenceID"":""UPS:BOT:A-531201"",""catalogNumber"":""A-531201"",""continent"":""Europe"",""country"":""Sweden"",""stateProvince"":""Bohuslän"",""county"":""Lysekil"",""locality"":""Humlesäcken"",""decimalLatitude"":""58.2769400"",""decimalLongitude"":""11.4166700""}","{""locationDisplayLabel"":""Humlesäcken"",""interpretedTokens"":[""Humlesäcken""]}"
GBIF,uppsala-botany,Flatholmen-Spättan,58.2466700,11.4236100,"{""institutionCode"":""UPS"",""collectionCode"":""BOT"",""occurrenceID"":""UPS:BOT:A-531211"",""catalogNumber"":""A-531211"",""continent"":""Europe"",""country"":""Sweden"",""stateProvince"":""Bohuslän"",""county"":""Skaftö"",""locality"":""Flatholmen-Spättan"",""decimalLatitude"":""58.2466700"",""decimalLongitude"":""11.4236100""}","{""locationDisplayLabel"":""Flatholmen-Spättan"",""interpretedTokens"":[""Flatholmen-Spättan""]}"
GBIF,uppsala-botany,"Innanför, Bonden",59.2194400,11.3166700,"{""institutionCode"":""UPS"",""collectionCode"":""BOT"",""occurrenceID"":""UPS:BOT:A-531213"",""catalogNumber"":""A-531213"",""continent"":""Europe"",""country"":""Sweden"",""stateProvince"":""Bohuslän"",""county"":""Skaftö"",""locality"":""Innanför Bonden"",""decimalLatitude"":""59.2194400"",""decimalLongitude"":""11.3166700""}","{""locationDisplayLabel"":""Innanför, Bonden"",""interpretedTokens"":[""Innanför"",""Bonden""]}"
GBIF,uppsala-botany,Västerbådasmällen,60.3700000,18.7680600,"{""institutionCode"":""UPS"",""collectionCode"":""BOT"",""occurrenceID"":""UPS:BOT:A-531232"",""catalogNumber"":""A-531232"",""continent"":""Europe"",""country"":""Sweden"",""stateProvince"":""Uppland"",""county"":""Gräsö"",""locality"":""Västerbådasmällen"",""decimalLatitude"":""60.3700000"",""decimalLongitude"":""18.7680600""}","{""locationDisplayLabel"":""Västerbådasmällen"",""interpretedTokens"":[""Västerbådasmällen""]}"
GBIF,uppsala-botany,"Strömmarna, Dasy lokalen",58.2388900,11.5500000,"{""institutionCode"":""UPS"",""collectionCode"":""BOT"",""occurrenceID"":""UPS:BOT:A-531349"",""catalogNumber"":""A-531349"",""continent"":""Europe"",""country"":""Sweden"",""stateProvince"":""Bohuslän"",""county"":""Dragsmark"",""locality"":""Strömmarna, simning vid Dasy lokalen innanför trådarna"",""decimalLatitude"":""58.2388900"",""decimalLongitude"":""11.5500000""}","{""locationDisplayLabel"":""Strömmarna, Dasy lokalen"",""interpretedTokens"":[""Strömmarna"",""Dasy lokalen""]}"
GBIF,uppsala-botany,"Stångehuvud, Lysekil, Humlesäcken",58.2708300,11.4263900,"{""institutionCode"":""UPS"",""collectionCode"":""BOT"",""occurrenceID"":""UPS:BOT:A-531412"",""catalogNumber"":""A-531412"",""continent"":""Europe"",""country"":""Sweden"",""stateProvince"":""Bohuslän"",""county"":""Lysekil"",""locality"":""Vid pricken utanför Stångehuvud (Lysekil) norr om Humlesäcken"",""decimalLatitude"":""58.2708300"",""decimalLongitude"":""11.4263900""}","{""locationDisplayLabel"":""Stångehuvud, Lysekil, Humlesäcken"",""interpretedTokens"":[""Stångehuvud"",""Lysekil"",""Humlesäcken""]}"
GBIF,uppsala-botany,"Gullmarfjorden, Flatholmens",58.2652800,11.4100000,"{""institutionCode"":""UPS"",""collectionCode"":""BOT"",""occurrenceID"":""UPS:BOT:A-531414"",""catalogNumber"":""A-531414"",""continent"":""Europe"",""country"":""Sweden"",""stateProvince"":""Bohuslän"",""county"":""Skaftö"",""locality"":""Gullmarfjorden, Flatholmens utsida"",""decimalLatitude"":""58.2652800"",""decimalLongitude"":""11.4100000""}","{""locationDisplayLabel"":""Gullmarfjorden, Flatholmens"",""interpretedTokens"":[""Gullmarfjorden"",""Flatholmens""]}"
GBIF,uppsala-botany,Smedjepricken,58.2694400,11.3700000,"{""institutionCode"":""UPS"",""collectionCode"":""BOT"",""occurrenceID"":""UPS:BOT:A-531415"",""catalogNumber"":""A-531415"",""continent"":""Europe"",""country"":""Sweden"",""stateProvince"":""Bohuslän"",""county"":""Skaftö"",""locality"":""Smedjepricken"",""decimalLatitude"":""58.2694400"",""decimalLongitude"":""11.3700000""}","{""locationDisplayLabel"":""Smedjepricken"",""interpretedTokens"":[""Smedjepricken""]}"
GBIF,uppsala-botany,"Väderö, Storö",58.5847200,11.0777800,"{""institutionCode"":""UPS"",""collectionCode"":""BOT"",""occurrenceID"":""UPS:BOT:A-531460"",""catalogNumber"":""A-531460"",""continent"":""Europe"",""country"":""Sweden"",""stateProvince"":""Bohuslän"",""county"":""Uddevalla"",""locality"":""Väderö Storö, 18 m rännan"",""decimalLatitude"":""58.5847200"",""decimalLongitude"":""11.0777800""}","{""locationDisplayLabel"":""Väderö, Storö"",""interpretedTokens"":[""Väderö"",""Storö""]}"
GBIF,uppsala-botany,"Kristineberg, Mosseberget",58.2569400,11.3944400,"{""institutionCode"":""UPS"",""collectionCode"":""BOT"",""occurrenceID"":""UPS:BOT:A-531508"",""catalogNumber"":""A-531508"",""continent"":""Europe"",""country"":""Sweden"",""stateProvince"":""Bohuslän"",""county"":""Skaftö"",""locality"":""Kristineberg, Mosseberget"",""decimalLatitude"":""58.2569400"",""decimalLongitude"":""11.3944400""}","{""locationDisplayLabel"":""Kristineberg, Mosseberget"",""interpretedTokens"":[""Kristineberg"",""Mosseberget""]}"
GBIF,uppsala-botany,Nidingen,57.3541700,11.9750000,"{""institutionCode"":""UPS"",""collectionCode"":""BOT"",""occurrenceID"":""UPS:BOT:A-531540"",""catalogNumber"":""A-531540"",""continent"":""Europe"",""country"":""Sweden"",""stateProvince"":""Halland"",""county"":""Onsala"",""locality"":""NO om Nidingen"",""decimalLatitude"":""57.3541700"",""decimalLongitude"":""11.9750000""}","{""locationDisplayLabel"":""Nidingen"",""interpretedTokens"":[""Nidingen""]}"
GBIF,uppsala-botany,Fiskebäckskil,58.2500000,11.4666700,"{""institutionCode"":""UPS"",""collectionCode"":""BOT"",""occurrenceID"":""UPS:BOT:A-531553"",""catalogNumber"":""A-531553"",""continent"":""Europe"",""country"":""Sweden"",""stateProvince"":""Bohuslän"",""county"":""Skaftö"",""locality"":""Fiskebäckskil, under bron till restauranten"",""decimalLatitude"":""58.2500000"",""decimalLongitude"":""11.4666700""}","{""locationDisplayLabel"":""Fiskebäckskil"",""interpretedTokens"":[""Fiskebäckskil""]}"
GBIF,uppsala-botany,"Spättasbådan, Flatholmen",58.2694400,11.3700000,"{""institutionCode"":""UPS"",""collectionCode"":""BOT"",""occurrenceID"":""UPS:BOT:A-531619"",""catalogNumber"":""A-531619"",""continent"":""Europe"",""country"":""Sweden"",""stateProvince"":""Bohuslän"",""county"":""Skaftö"",""locality"":""Mellan Spättasbådan och Flatholmen"",""decimalLatitude"":""58.2694400"",""decimalLongitude"":""11.3700000""}","{""locationDisplayLabel"":""Spättasbådan, Flatholmen"",""interpretedTokens"":[""Spättasbådan"",""Flatholmen""]}"
GBIF,uppsala-botany,Kalköbåde,58.5777800,11.2000000,"{""institutionCode"":""UPS"",""collectionCode"":""BOT"",""occurrenceID"":""UPS:BOT:A-531622"",""catalogNumber"":""A-531622"",""continent"":""Europe"",""country"":""Sweden"",""stateProvince"":""Bohuslän"",""county"":""Skaftö"",""locality"":""Kalköbåde"",""decimalLatitude"":""58.5777800"",""decimalLongitude"":""11.2000000""}","{""locationDisplayLabel"":""Kalköbåde"",""interpretedTokens"":[""Kalköbåde""]}"
GBIF,uppsala-botany,Sydöstsidan,58.2538900,11.4458300,"{""institutionCode"":""UPS"",""collectionCode"":""BOT"",""occurrenceID"":""UPS:BOT:A-531638"",""catalogNumber"":""A-531638"",""continent"":""Europe"",""country"":""Sweden"",""stateProvince"":""Bohuslän"",""county"":""Skaftö"",""locality"":""Blåbergsholmen Sydöstsidan, lnadningsvik"",""decimalLatitude"":""58.2538900"",""decimalLongitude"":""11.4458300""}","{""locationDisplayLabel"":""Sydöstsidan"",""interpretedTokens"":[""Sydöstsidan""]}"
GBIF,uppsala-botany,Stora Korsten,60.2411100,18.7022200,"{""institutionCode"":""UPS"",""collectionCode"":""BOT"",""occurrenceID"":""UPS:BOT:A-531643"",""catalogNumber"":""A-531643"",""continent"":""Europe"",""country"":""Sweden"",""stateProvince"":""Uppland"",""county"":""Singö"",""locality"":""Stora Korsten"",""decimalLatitude"":""60.2411100"",""decimalLongitude"":""18.7022200""}","{""locationDisplayLabel"":""Stora Korsten"",""interpretedTokens"":[""Stora Korsten""]}"
GBIF,uppsala-botany,Grundkallens klack,60.4600000,18.8838900,"{""institutionCode"":""UPS"",""collectionCode"":""BOT"",""occurrenceID"":""UPS:BOT:A-621541"",""catalogNumber"":""A-621541"",""continent"":""Europe"",""country"":""Sweden"",""stateProvince"":""Uppland"",""county"":""Gräsö"",""locality"":""Grundkallens klack, nordsida"",""decimalLatitude"":""60.4600000"",""decimalLongitude"":""18.8838900""}","{""locationDisplayLabel"":""Grundkallens klack"",""interpretedTokens"":[""Grundkallens klack""]}"
GBIF,uppsala-botany,Trutbådan,60.3169400,18.6236100,"{""institutionCode"":""UPS"",""collectionCode"":""BOT"",""occurrenceID"":""UPS:BOT:A-621557"",""catalogNumber"":""A-621557"",""continent"":""Europe"",""country"":""Sweden"",""stateProvince"":""Uppland"",""county"":""Öregrund"",""locality"":""Trutbådan, sten 2"",""decimalLatitude"":""60.3169400"",""decimalLongitude"":""18.6236100""}","{""locationDisplayLabel"":""Trutbådan"",""interpretedTokens"":[""Trutbådan""]}"
GBIF,uppsala-botany,Öregrunds skärgård,60.3169400,18.6236100,"{""institutionCode"":""UPS"",""collectionCode"":""BOT"",""occurrenceID"":""UPS:BOT:A-621558"",""catalogNumber"":""A-621558"",""continent"":""Europe"",""country"":""Sweden"",""stateProvince"":""Uppland"",""county"":""Öregrund"",""locality"":""Öregrunds skärgård, Trutbådan sten 3"",""decimalLatitude"":""60.3169400"",""decimalLongitude"":""18.6236100""}","{""locationDisplayLabel"":""Öregrunds skärgård"",""interpretedTokens"":[""Öregrunds skärgård""]}"
GBIF,uppsala-botany,Trutbådan,60.3169400,18.6236100,"{""institutionCode"":""UPS"",""collectionCode"":""BOT"",""occurrenceID"":""UPS:BOT:A-621560"",""catalogNumber"":""A-621560"",""continent"":""Europe"",""country"":""Sweden"",""stateProvince"":""Uppland"",""county"":""Öregrund"",""locality"":""Trutbådan, hink III"",""decimalLatitude"":""60.3169400"",""decimalLongitude"":""18.6236100""}","{""locationDisplayLabel"":""Trutbådan"",""interpretedTokens"":[""Trutbådan""]}"
GBIF,uppsala-botany,Grundkallens klack,60.2997200,18.5130600,"{""institutionCode"":""UPS"",""collectionCode"":""BOT"",""occurrenceID"":""UPS:BOT:A-621579"",""catalogNumber"":""A-621579"",""continent"":""Europe"",""country"":""Sweden"",""stateProvince"":""Uppland"",""county"":""Gräsö"",""locality"":""Grundkallens klack"",""decimalLatitude"":""60.2997200"",""decimalLongitude"":""18.5130600""}","{""locationDisplayLabel"":""Grundkallens klack"",""interpretedTokens"":[""Grundkallens klack""]}"
GBIF,uppsala-botany,Grundkallegrand klacken,60.2997200,18.5130600,"{""institutionCode"":""UPS"",""collectionCode"":""BOT"",""occurrenceID"":""UPS:BOT:A-621582"",""catalogNumber"":""A-621582"",""continent"":""Europe"",""country"":""Sweden"",""stateProvince"":""Uppland"",""county"":""Gräsö"",""locality"":""Grundkallegrand klacken"",""decimalLatitude"":""60.2997200"",""decimalLongitude"":""18.5130600""}","{""locationDisplayLabel"":""Grundkallegrand klacken"",""interpretedTokens"":[""Grundkallegrand klacken""]}"
GBIF,uppsala-botany,Grundkallens klack,60.2997200,18.5130600,"{""institutionCode"":""UPS"",""collectionCode"":""BOT"",""occurrenceID"":""UPS:BOT:A-621584"",""catalogNumber"":""A-621584"",""continent"":""Europe"",""country"":""Sweden"",""stateProvince"":""Uppland"",""county"":""Gräsö"",""locality"":""Grundkallens klack S sida"",""decimalLatitude"":""60.2997200"",""decimalLongitude"":""18.5130600""}","{""locationDisplayLabel"":""Grundkallens klack"",""interpretedTokens"":[""Grundkallens klack""]}"
GBIF,uppsala-botany,Grundkallens klack,60.2997200,18.5130600,"{""institutionCode"":""UPS"",""collectionCode"":""BOT"",""occurrenceID"":""UPS:BOT:A-621586"",""catalogNumber"":""A-621586"",""continent"":""Europe"",""country"":""Sweden"",""stateProvince"":""Uppland"",""county"":""Gräsö"",""locality"":""Grundkallens klack nordsida"",""decimalLatitude"":""60.2997200"",""decimalLongitude"":""18.5130600""}","{""locationDisplayLabel"":""Grundkallens klack"",""interpretedTokens"":[""Grundkallens klack""]}"
GBIF,uppsala-botany,Hållet,60.3416700,18.7527800,"{""institutionCode"":""UPS"",""collectionCode"":""BOT"",""occurrenceID"":""UPS:BOT:A-621735"",""catalogNumber"":""A-621735"",""continent"":""Europe"",""country"":""Sweden"",""stateProvince"":""Uppland"",""county"":""Gräsö"",""locality"":""Hållet D"",""decimalLatitude"":""60.3416700"",""decimalLongitude"":""18.7527800""}","{""locationDisplayLabel"":""Hållet"",""interpretedTokens"":[""Hållet""]}"
GBIF,uppsala-botany,Hållet,60.3416700,18.7527800,"{""institutionCode"":""UPS"",""collectionCode"":""BOT"",""occurrenceID"":""UPS:BOT:A-621736"",""catalogNumber"":""A-621736"",""continent"":""Europe"",""country"":""Sweden"",""stateProvince"":""Uppland"",""county"":""Gräsö"",""locality"":""Hållet"",""decimalLatitude"":""60.3416700"",""decimalLongitude"":""18.7527800""}","{""locationDisplayLabel"":""Hållet"",""interpretedTokens"":[""Hållet""]}"
GBIF,uppsala-botany,"Örskär, Tärnbådan",60.4891700,18.3525000,"{""institutionCode"":""UPS"",""collectionCode"":""BOT"",""occurrenceID"":""UPS:BOT:A-621758"",""catalogNumber"":""A-621758"",""continent"":""Europe"",""country"":""Sweden"",""stateProvince"":""Uppland"",""county"":""Gräsö"",""locality"":""Örskär, Tärnbådan"",""decimalLatitude"":""60.4891700"",""decimalLongitude"":""18.3525000""}","{""locationDisplayLabel"":""Örskär, Tärnbådan"",""interpretedTokens"":[""Örskär"",""Tärnbådan""]}"
GBIF,uppsala-botany,Örskär,60.5308300,18.4055600,"{""institutionCode"":""UPS"",""collectionCode"":""BOT"",""occurrenceID"":""UPS:BOT:A-621760"",""catalogNumber"":""A-621760"",""continent"":""Europe"",""country"":""Sweden"",""stateProvince"":""Uppland"",""county"":""Gräsö"",""locality"":""Örskär"",""decimalLatitude"":""60.5308300"",""decimalLongitude"":""18.4055600""}","{""locationDisplayLabel"":""Örskär"",""interpretedTokens"":[""Örskär""]}"
GBIF,uppsala-botany,Kullbådavikens inre,60.3388900,18.4752800,"{""institutionCode"":""UPS"",""collectionCode"":""BOT"",""occurrenceID"":""UPS:BOT:A-621821"",""catalogNumber"":""A-621821"",""continent"":""Europe"",""country"":""Sweden"",""stateProvince"":""Uppland"",""county"":""Gräsö"",""locality"":""i Kullbådavikens inre del"",""decimalLatitude"":""60.3388900"",""decimalLongitude"":""18.4752800""}","{""locationDisplayLabel"":""Kullbådavikens inre"",""interpretedTokens"":[""Kullbådavikens inre""]}"
GBIF,uppsala-botany,"Garpen, Skogskär",60.2322200,18.7655600,"{""institutionCode"":""UPS"",""collectionCode"":""BOT"",""occurrenceID"":""UPS:BOT:A-621829"",""catalogNumber"":""A-621829"",""continent"":""Europe"",""country"":""Sweden"",""stateProvince"":""Uppland"",""county"":""Gräsö"",""locality"":""Garpen Skogskär"",""decimalLatitude"":""60.2322200"",""decimalLongitude"":""18.7655600""}","{""locationDisplayLabel"":""Garpen, Skogskär"",""interpretedTokens"":[""Garpen"",""Skogskär""]}"
GBIF,uppsala-botany,"Skogskärs, Garpen",60.2322200,18.7655600,"{""institutionCode"":""UPS"",""collectionCode"":""BOT"",""occurrenceID"":""UPS:BOT:A-621840"",""catalogNumber"":""A-621840"",""continent"":""Europe"",""country"":""Sweden"",""stateProvince"":""Uppland"",""county"":""Gräsö"",""locality"":""Skogskärs Garpen"",""decimalLatitude"":""60.2322200"",""decimalLongitude"":""18.7655600""}","{""locationDisplayLabel"":""Skogskärs, Garpen"",""interpretedTokens"":[""Skogskärs"",""Garpen""]}"
GBIF,uppsala-botany,Måskobben,60.2080600,18.8575000,"{""institutionCode"":""UPS"",""collectionCode"":""BOT"",""occurrenceID"":""UPS:BOT:A-621893"",""catalogNumber"":""A-621893"",""continent"":""Europe"",""country"":""Sweden"",""stateProvince"":""Uppland"",""county"":""Singö"",""locality"":""Måskobben"",""decimalLatitude"":""60.2080600"",""decimalLongitude"":""18.8575000""}","{""locationDisplayLabel"":""Måskobben"",""interpretedTokens"":[""Måskobben""]}"
GBIF,uppsala-botany,"Västerskärs, Kubben, Hållskäret",60.2283300,18.8816700,"{""institutionCode"":""UPS"",""collectionCode"":""BOT"",""occurrenceID"":""UPS:BOT:A-621912"",""catalogNumber"":""A-621912"",""continent"":""Europe"",""country"":""Sweden"",""stateProvince"":""Uppland"",""county"":""Singö"",""locality"":""Västerskärs Kubben W (exposed), Hållskäret"",""decimalLatitude"":""60.2283300"",""decimalLongitude"":""18.8816700""}","{""locationDisplayLabel"":""Västerskärs, Kubben, Hållskäret"",""interpretedTokens"":[""Västerskärs"",""Kubben"",""Hållskäret""]}"
GBIF,uppsala-botany,"Västerhamnen, Dambassängen",60.3408300,18.4361100,"{""institutionCode"":""UPS"",""collectionCode"":""BOT"",""occurrenceID"":""UPS:BOT:A-621938"",""catalogNumber"":""A-621938"",""continent"":""Europe"",""country"":""Sweden"",""stateProvince"":""Uppland"",""county"":""Öregrund"",""locality"":""tångvall i Västerhamnen där man drar upp ekor, alltså närmast Dambassängen"",""decimalLatitude"":""60.3408300"",""decimalLongitude"":""18.4361100""}","{""locationDisplayLabel"":""Västerhamnen, Dambassängen"",""interpretedTokens"":[""Västerhamnen"",""Dambassängen""]}"
GBIF,uppsala-botany,Öregrund,60.3405600,18.4466700,"{""institutionCode"":""UPS"",""collectionCode"":""BOT"",""occurrenceID"":""UPS:BOT:A-621945"",""catalogNumber"":""A-621945"",""continent"":""Europe"",""country"":""Sweden"",""stateProvince"":""Uppland"",""county"":""Öregrund"",""locality"":""Öregrund, färjläget"",""decimalLatitude"":""60.3405600"",""decimalLongitude"":""18.4466700""}","{""locationDisplayLabel"":""Öregrund"",""interpretedTokens"":[""Öregrund""]}"
GBIF,uppsala-botany,"Länsman, Öregrund skärgård",60.4411100,18.2325000,"{""institutionCode"":""UPS"",""collectionCode"":""BOT"",""occurrenceID"":""UPS:BOT:A-621971"",""catalogNumber"":""A-621971"",""continent"":""Europe"",""country"":""Sweden"",""stateProvince"":""Uppland"",""county"":""Gräsö"",""locality"":""Länsman, Öregrund skärgård"",""decimalLatitude"":""60.4411100"",""decimalLongitude"":""18.2325000""}","{""locationDisplayLabel"":""Länsman, Öregrund skärgård"",""interpretedTokens"":[""Länsman"",""Öregrund skärgård""]}"
GBIF,uppsala-botany,Forsmark,60.4077800,18.1727800,"{""institutionCode"":""UPS"",""collectionCode"":""BOT"",""occurrenceID"":""UPS:BOT:A-621979"",""catalogNumber"":""A-621979"",""continent"":""Europe"",""country"":""Sweden"",""stateProvince"":""Uppland"",""county"":""Forsmark"",""locality"":""Forsmark, inne i dammen vid \""labbet\"""",""decimalLatitude"":""60.4077800"",""decimalLongitude"":""18.1727800""}","{""locationDisplayLabel"":""Forsmark"",""interpretedTokens"":[""Forsmark""]}"
GBIF,uppsala-botany,Vintergatsviken,60.3402800,18.4355600,"{""institutionCode"":""UPS"",""collectionCode"":""BOT"",""occurrenceID"":""UPS:BOT:A-621980"",""catalogNumber"":""A-621980"",""continent"":""Europe"",""country"":""Sweden"",""stateProvince"":""Uppland"",""county"":""Öregrund"",""locality"":""Vintergatsviken"",""decimalLatitude"":""60.3402800"",""decimalLongitude"":""18.4355600""}","{""locationDisplayLabel"":""Vintergatsviken"",""interpretedTokens"":[""Vintergatsviken""]}"
GBIF,uppsala-botany,"Lundeborgs"", Kyrkogatan",60.3411100,18.4500000,"{""institutionCode"":""UPS"",""collectionCode"":""BOT"",""occurrenceID"":""UPS:BOT:A-622089"",""catalogNumber"":""A-622089"",""continent"":""Europe"",""country"":""Sweden"",""stateProvince"":""Uppland"",""county"":""Öregrund"",""locality"":""invid \""Lundeborgs\"", Kyrkogatan. Huvudpissplats"",""decimalLatitude"":""60.3411100"",""decimalLongitude"":""18.4500000""}","{""locationDisplayLabel"":""Lundeborgs\"", Kyrkogatan"",""interpretedTokens"":[""Lundeborgs\"""",""Kyrkogatan""]}"
GBIF,uppsala-botany,"Kejsarjakten, Kullbådaviken",60.3894400,18.6788900,"{""institutionCode"":""UPS"",""collectionCode"":""BOT"",""occurrenceID"":""UPS:BOT:A-622091"",""catalogNumber"":""A-622091"",""continent"":""Europe"",""country"":""Sweden"",""stateProvince"":""Uppland"",""county"":""Gräsö"",""locality"":""vid Kejsarjakten i Kullbådaviken"",""decimalLatitude"":""60.3894400"",""decimalLongitude"":""18.6788900""}","{""locationDisplayLabel"":""Kejsarjakten, Kullbådaviken"",""interpretedTokens"":[""Kejsarjakten"",""Kullbådaviken""]}"
GBIF,uppsala-botany,Rödskär,60.2866700,18.7008300,"{""institutionCode"":""UPS"",""collectionCode"":""BOT"",""occurrenceID"":""UPS:BOT:A-622493"",""catalogNumber"":""A-622493"",""continent"":""Europe"",""country"":""Sweden"",""stateProvince"":""Uppland"",""county"":""Öregrund"",""locality"":""Rödskär"",""decimalLatitude"":""60.2866700"",""decimalLongitude"":""18.7008300""}","{""locationDisplayLabel"":""Rödskär"",""interpretedTokens"":[""Rödskär""]}"
GBIF,uppsala-botany,Rödskär,60.2891700,18.7008300,"{""institutionCode"":""UPS"",""collectionCode"":""BOT"",""occurrenceID"":""UPS:BOT:A-622497"",""catalogNumber"":""A-622497"",""continent"":""Europe"",""country"":""Sweden"",""stateProvince"":""Uppland"",""county"":""Öregrund"",""locality"":""Rödskär"",""decimalLatitude"":""60.2891700"",""decimalLongitude"":""18.7008300""}","{""locationDisplayLabel"":""Rödskär"",""interpretedTokens"":[""Rödskär""]}"
GBIF,uppsala-botany,Barnens ö,59.9175000,18.9402800,"{""institutionCode"":""UPS"",""collectionCode"":""BOT"",""occurrenceID"":""UPS:BOT:A-622510"",""catalogNumber"":""A-622510"",""continent"":""Europe"",""country"":""Sweden"",""stateProvince"":""Uppland"",""county"":""Väddö"",""locality"":""Barnens ö vid bryggan"",""decimalLatitude"":""59.9175000"",""decimalLongitude"":""18.9402800""}","{""locationDisplayLabel"":""Barnens ö"",""interpretedTokens"":[""Barnens ö""]}"
GBIF,uppsala-botany,"Stockholms, Norra skärgård, Lidö",59.7797200,19.0777800,"{""institutionCode"":""UPS"",""collectionCode"":""BOT"",""occurrenceID"":""UPS:BOT:A-622511"",""catalogNumber"":""A-622511"",""continent"":""Europe"",""country"":""Sweden"",""stateProvince"":""Uppland"",""county"":""Vätö"",""locality"":""Stockholms Norra skärgård, Lidö S-sida"",""decimalLatitude"":""59.7797200"",""decimalLongitude"":""19.0777800""}","{""locationDisplayLabel"":""Stockholms, Norra skärgård, Lidö"",""interpretedTokens"":[""Stockholms"",""Norra skärgård"",""Lidö""]}"
GBIF,uppsala-botany,Kullbådan,60.3388900,18.4752800,"{""institutionCode"":""UPS"",""collectionCode"":""BOT"",""occurrenceID"":""UPS:BOT:A-622518"",""catalogNumber"":""A-622518"",""continent"":""Europe"",""country"":""Sweden"",""stateProvince"":""Uppland"",""county"":""Gräsö"",""locality"":""Kullbådan"",""decimalLatitude"":""60.3388900"",""decimalLongitude"":""18.4752800""}","{""locationDisplayLabel"":""Kullbådan"",""interpretedTokens"":[""Kullbådan""]}"
GBIF,uppsala-botany,"Öregrund archipelago, Kallrigafjärden",60.3697200,18.2955600,"{""institutionCode"":""UPS"",""collectionCode"":""BOT"",""occurrenceID"":""UPS:BOT:A-622551"",""catalogNumber"":""A-622551"",""continent"":""Europe"",""country"":""Sweden"",""stateProvince"":""Uppland"",""county"":""Öregrund"",""locality"":""Öregrund archipelago, Kallrigafjärden, on the esker"",""decimalLatitude"":""60.3697200"",""decimalLongitude"":""18.2955600""}","{""locationDisplayLabel"":""Öregrund archipelago, Kallrigafjärden"",""interpretedTokens"":[""Öregrund archipelago"",""Kallrigafjärden""]}"
GBIF,uppsala-botany,Råstensudde,60.2216700,18.7283300,"{""institutionCode"":""UPS"",""collectionCode"":""BOT"",""occurrenceID"":""UPS:BOT:A-622581"",""catalogNumber"":""A-622581"",""continent"":""Europe"",""country"":""Sweden"",""stateProvince"":""Uppland"",""county"":""Öregrund"",""locality"":""Råstensudde"",""decimalLatitude"":""60.2216700"",""decimalLongitude"":""18.7283300""}","{""locationDisplayLabel"":""Råstensudde"",""interpretedTokens"":[""Råstensudde""]}"
GBIF,uppsala-botany,"Söderarm, Stockholms skärgård",59.7547200,19.4100000,"{""institutionCode"":""UPS"",""collectionCode"":""BOT"",""occurrenceID"":""UPS:BOT:A-622627"",""catalogNumber"":""A-622627"",""continent"":""Europe"",""country"":""Sweden"",""stateProvince"":""Uppland"",""county"":""Rådmansö"",""locality"":""Söderarm, Stockholms skärgård"",""decimalLatitude"":""59.7547200"",""decimalLongitude"":""19.4100000""}","{""locationDisplayLabel"":""Söderarm, Stockholms skärgård"",""interpretedTokens"":[""Söderarm"",""Stockholms skärgård""]}"
GBIF,uppsala-botany,Söderarm,59.7547200,19.4100000,"{""institutionCode"":""UPS"",""collectionCode"":""BOT"",""occurrenceID"":""UPS:BOT:A-622630"",""catalogNumber"":""A-622630"",""continent"":""Europe"",""country"":""Sweden"",""stateProvince"":""Uppland"",""county"":""Rådmansö"",""locality"":""Söderarm"",""decimalLatitude"":""59.7547200"",""decimalLongitude"":""19.4100000""}","{""locationDisplayLabel"":""Söderarm"",""interpretedTokens"":[""Söderarm""]}"
GBIF,uppsala-botany,Gisslinge Kalken,59.7744400,19.1788900,"{""institutionCode"":""UPS"",""collectionCode"":""BOT"",""occurrenceID"":""UPS:BOT:A-622671"",""catalogNumber"":""A-622671"",""continent"":""Europe"",""country"":""Sweden"",""stateProvince"":""Uppland"",""county"":""Vätö"",""locality"":""Gisslinge Kalken"",""decimalLatitude"":""59.7744400"",""decimalLongitude"":""19.1788900""}","{""locationDisplayLabel"":""Gisslinge Kalken"",""interpretedTokens"":[""Gisslinge Kalken""]}"
GBIF,uppsala-botany,"Väddö kanal, Storfjärden",58.9500000,18.8300000,"{""institutionCode"":""UPS"",""collectionCode"":""BOT"",""occurrenceID"":""UPS:BOT:A-622682"",""catalogNumber"":""A-622682"",""continent"":""Europe"",""country"":""Sweden"",""stateProvince"":""Uppland"",""county"":""Väddö"",""locality"":""Väddö kanal, Storfjärden"",""decimalLatitude"":""58.9500000"",""decimalLongitude"":""18.8300000""}","{""locationDisplayLabel"":""Väddö kanal, Storfjärden"",""interpretedTokens"":[""Väddö kanal"",""Storfjärden""]}"
GBIF,uppsala-botany,"Lilla Plomman, Kapellskärs fyr",59.7141700,19.1205600,"{""institutionCode"":""UPS"",""collectionCode"":""BOT"",""occurrenceID"":""UPS:BOT:A-622689"",""catalogNumber"":""A-622689"",""continent"":""Europe"",""country"":""Sweden"",""stateProvince"":""Uppland"",""county"":""Rådmansö"",""locality"":""ca 30 m S om Lilla Plomman (2,5 km OtS om Kapellskärs fyr)"",""decimalLatitude"":""59.7141700"",""decimalLongitude"":""19.1205600""}","{""locationDisplayLabel"":""Lilla Plomman, Kapellskärs fyr"",""interpretedTokens"":[""Lilla Plomman"",""Kapellskärs fyr""]}"
GBIF,uppsala-botany,"Torvsjö, Hemviken, Saltsjön",59.7422200,19.0716700,"{""institutionCode"":""UPS"",""collectionCode"":""BOT"",""occurrenceID"":""UPS:BOT:A-622690"",""catalogNumber"":""A-622690"",""continent"":""Europe"",""country"":""Sweden"",""stateProvince"":""Uppland"",""county"":""Rådmansö"",""locality"":""Torvsjö, \""Hemviken\"" (Saltsjön) vid sågen"",""decimalLatitude"":""59.7422200"",""decimalLongitude"":""19.0716700""}","{""locationDisplayLabel"":""Torvsjö, Hemviken, Saltsjön"",""interpretedTokens"":[""Torvsjö"",""Hemviken"",""Saltsjön""]}"
GBIF,uppsala-botany,Västra (Vässar,60.2830600,18.7511100,"{""institutionCode"":""UPS"",""collectionCode"":""BOT"",""occurrenceID"":""UPS:BOT:A-623074"",""catalogNumber"":""A-623074"",""continent"":""Europe"",""country"":""Sweden"",""stateProvince"":""Uppland"",""county"":""Gräsö"",""locality"":""Västra (Vässar)  Viten"",""decimalLatitude"":""60.2830600"",""decimalLongitude"":""18.7511100""}","{""locationDisplayLabel"":""Västra (Vässar"",""interpretedTokens"":[""Västra (Vässar""]}"
GBIF,uppsala-botany,Klyndorna,60.4486100,18.5844400,"{""institutionCode"":""UPS"",""collectionCode"":""BOT"",""occurrenceID"":""UPS:BOT:A-623078"",""catalogNumber"":""A-623078"",""continent"":""Europe"",""country"":""Sweden"",""stateProvince"":""Uppland"",""county"":""Gräsö"",""locality"":""Klyndorna"",""decimalLatitude"":""60.4486100"",""decimalLongitude"":""18.5844400""}","{""locationDisplayLabel"":""Klyndorna"",""interpretedTokens"":[""Klyndorna""]}"
GBIF,uppsala-botany,"Yttre Måsbodabådan, Storgrynnan",60.4094400,18.3933300,"{""institutionCode"":""UPS"",""collectionCode"":""BOT"",""occurrenceID"":""UPS:BOT:A-623079"",""catalogNumber"":""A-623079"",""continent"":""Europe"",""country"":""Sweden"",""stateProvince"":""Uppland"",""county"":""Gräsö"",""locality"":""Yttre Måsbodabådan, Storgrynnan den sydligaste av toppar"",""decimalLatitude"":""60.4094400"",""decimalLongitude"":""18.3933300""}","{""locationDisplayLabel"":""Yttre Måsbodabådan, Storgrynnan"",""interpretedTokens"":[""Yttre Måsbodabådan"",""Storgrynnan""]}"
GBIF,uppsala-botany,Yttre Måsbodabådan,60.4094400,18.3933300,"{""institutionCode"":""UPS"",""collectionCode"":""BOT"",""occurrenceID"":""UPS:BOT:A-623086"",""catalogNumber"":""A-623086"",""continent"":""Europe"",""country"":""Sweden"",""stateProvince"":""Uppland"",""county"":""Gräsö"",""locality"":""Yttre Måsbodabådan"",""decimalLatitude"":""60.4094400"",""decimalLongitude"":""18.3933300""}","{""locationDisplayLabel"":""Yttre Måsbodabådan"",""interpretedTokens"":[""Yttre Måsbodabådan""]}"
GBIF,uppsala-botany,Vässarö Garpen,60.2772200,18.7283300,"{""institutionCode"":""UPS"",""collectionCode"":""BOT"",""occurrenceID"":""UPS:BOT:A-623118"",""catalogNumber"":""A-623118"",""continent"":""Europe"",""country"":""Sweden"",""stateProvince"":""Uppland"",""county"":""Gräsö"",""locality"":""Vässarö Garpen"",""decimalLatitude"":""60.2772200"",""decimalLongitude"":""18.7283300""}","{""locationDisplayLabel"":""Vässarö Garpen"",""interpretedTokens"":[""Vässarö Garpen""]}"
GBIF,uppsala-botany,"Kosten, SO, Rune Söderbergs landningsbukt",60.3894400,18.6788900,"{""institutionCode"":""UPS"",""collectionCode"":""BOT"",""occurrenceID"":""UPS:BOT:A-623125"",""catalogNumber"":""A-623125"",""continent"":""Europe"",""country"":""Sweden"",""stateProvince"":""Uppland"",""county"":""Gräsö"",""locality"":""Kosten SO, lilla viken (parallell med ön) invid Rune Söderbergs landningsbukt"",""decimalLatitude"":""60.3894400"",""decimalLongitude"":""18.6788900""}","{""locationDisplayLabel"":""Kosten, SO, Rune Söderbergs landningsbukt"",""interpretedTokens"":[""Kosten"",""SO"",""Rune Söderbergs landningsbukt""]}"
GBIF,uppsala-botany,"Kosten, SO",60.3894400,18.6788900,"{""institutionCode"":""UPS"",""collectionCode"":""BOT"",""occurrenceID"":""UPS:BOT:A-623126"",""catalogNumber"":""A-623126"",""continent"":""Europe"",""country"":""Sweden"",""stateProvince"":""Uppland"",""county"":""Gräsö"",""locality"":""Kosten SO, utanför lilla viken"",""decimalLatitude"":""60.3894400"",""decimalLongitude"":""18.6788900""}","{""locationDisplayLabel"":""Kosten, SO"",""interpretedTokens"":[""Kosten"",""SO""]}"
GBIF,uppsala-botany,Kosten SO,60.3894400,18.6788900,"{""institutionCode"":""UPS"",""collectionCode"":""BOT"",""occurrenceID"":""UPS:BOT:A-623127"",""catalogNumber"":""A-623127"",""continent"":""Europe"",""country"":""Sweden"",""stateProvince"":""Uppland"",""county"":""Gräsö"",""locality"":""Kosten SO, inne i lilla viken"",""decimalLatitude"":""60.3894400"",""decimalLongitude"":""18.6788900""}","{""locationDisplayLabel"":""Kosten SO"",""interpretedTokens"":[""Kosten SO""]}"
GBIF,uppsala-botany,Måskubben,60.2080600,18.8575000,"{""institutionCode"":""UPS"",""collectionCode"":""BOT"",""occurrenceID"":""UPS:BOT:A-623144"",""catalogNumber"":""A-623144"",""continent"":""Europe"",""country"":""Sweden"",""stateProvince"":""Uppland"",""county"":""Singö"",""locality"":""Måskubben S"",""decimalLatitude"":""60.2080600"",""decimalLongitude"":""18.8575000""}","{""locationDisplayLabel"":""Måskubben"",""interpretedTokens"":[""Måskubben""]}"
GBIF,uppsala-botany,St. Korssten,60.2044400,18.8480600,"{""institutionCode"":""UPS"",""collectionCode"":""BOT"",""occurrenceID"":""UPS:BOT:A-623168"",""catalogNumber"":""A-623168"",""continent"":""Europe"",""country"":""Sweden"",""stateProvince"":""Uppland"",""county"":""Singö"",""locality"":""St. Korssten S"",""decimalLatitude"":""60.2044400"",""decimalLongitude"":""18.8480600""}","{""locationDisplayLabel"":""St. Korssten"",""interpretedTokens"":[""St. Korssten""]}"
GBIF,uppsala-botany,"St. Korssten, N",60.2044400,18.8480600,"{""institutionCode"":""UPS"",""collectionCode"":""BOT"",""occurrenceID"":""UPS:BOT:A-623173"",""catalogNumber"":""A-623173"",""continent"":""Europe"",""country"":""Sweden"",""stateProvince"":""Uppland"",""county"":""Singö"",""locality"":""St. Korssten N, i viken"",""decimalLatitude"":""60.2044400"",""decimalLongitude"":""18.8480600""}","{""locationDisplayLabel"":""St. Korssten, N"",""interpretedTokens"":[""St. Korssten"",""N""]}"
GBIF,uppsala-botany,St. Korssten,60.2044400,18.8480600,"{""institutionCode"":""UPS"",""collectionCode"":""BOT"",""occurrenceID"":""UPS:BOT:A-623174"",""catalogNumber"":""A-623174"",""continent"":""Europe"",""country"":""Sweden"",""stateProvince"":""Uppland"",""county"":""Singö"",""locality"":""St. Korssten N"",""decimalLatitude"":""60.2044400"",""decimalLongitude"":""18.8480600""}","{""locationDisplayLabel"":""St. Korssten"",""interpretedTokens"":[""St. Korssten""]}"
GBIF,uppsala-botany,Halsaren,60.2205600,18.6650000,"{""institutionCode"":""UPS"",""collectionCode"":""BOT"",""occurrenceID"":""UPS:BOT:A-623181"",""catalogNumber"":""A-623181"",""continent"":""Europe"",""country"":""Sweden"",""stateProvince"":""Uppland"",""county"":""Singö"",""locality"":""Halsaren N"",""decimalLatitude"":""60.2205600"",""decimalLongitude"":""18.6650000""}","{""locationDisplayLabel"":""Halsaren"",""interpretedTokens"":[""Halsaren""]}"
GBIF,uppsala-botany,Hansvik,60.3694400,18.4727800,"{""institutionCode"":""UPS"",""collectionCode"":""BOT"",""occurrenceID"":""UPS:BOT:A-623250"",""catalogNumber"":""A-623250"",""continent"":""Europe"",""country"":""Sweden"",""stateProvince"":""Uppland"",""county"":""Gräsö"",""locality"":""Hansvik, i båthamnen"",""decimalLatitude"":""60.3694400"",""decimalLongitude"":""18.4727800""}","{""locationDisplayLabel"":""Hansvik"",""interpretedTokens"":[""Hansvik""]}"
GBIF,uppsala-botany,"Öregruns skärgård, Kallrigafjärden",60.3697200,18.2955600,"{""institutionCode"":""UPS"",""collectionCode"":""BOT"",""occurrenceID"":""UPS:BOT:A-623251"",""catalogNumber"":""A-623251"",""continent"":""Europe"",""country"":""Sweden"",""stateProvince"":""Uppland"",""county"":""Öregrund"",""locality"":""Öregruns skärgård, Kallrigafjärden"",""decimalLatitude"":""60.3697200"",""decimalLongitude"":""18.2955600""}","{""locationDisplayLabel"":""Öregruns skärgård, Kallrigafjärden"",""interpretedTokens"":[""Öregruns skärgård"",""Kallrigafjärden""]}"
GBIF,uppsala-botany,"Strömma, Onskärsviken",60.2847200,18.5091700,"{""institutionCode"":""UPS"",""collectionCode"":""BOT"",""occurrenceID"":""UPS:BOT:A-623252"",""catalogNumber"":""A-623252"",""continent"":""Europe"",""country"":""Sweden"",""stateProvince"":""Uppland"",""county"":""Öregrund"",""locality"":""mellan Strömma och Onskärsviken"",""decimalLatitude"":""60.2847200"",""decimalLongitude"":""18.5091700""}","{""locationDisplayLabel"":""Strömma, Onskärsviken"",""interpretedTokens"":[""Strömma"",""Onskärsviken""]}"
GBIF,uppsala-botany,"Öregrunds skärgård, Tögen, Gropören, Storströmmen",60.2766700,18.5105600,"{""institutionCode"":""UPS"",""collectionCode"":""BOT"",""occurrenceID"":""UPS:BOT:A-623253"",""catalogNumber"":""A-623253"",""continent"":""Europe"",""country"":""Sweden"",""stateProvince"":""Uppland"",""county"":""Öregrund"",""locality"":""Öregrunds skärgård, norr om Tögen (västra delen) på \""5metersfjärden\"" mellan Gropören och Storströmmen (spärra)"",""decimalLatitude"":""60.2766700"",""decimalLongitude"":""18.5105600""}","{""locationDisplayLabel"":""Tögen, Gropören, Storströmmen"",""interpretedTokens"":[""Öregrunds skärgård"",""Tögen"",""Gropören"",""Storströmmen""]}"
GBIF,uppsala-botany,Kullbådaviken,60.3388900,18.4752800,"{""institutionCode"":""UPS"",""collectionCode"":""BOT"",""occurrenceID"":""UPS:BOT:A-623255"",""catalogNumber"":""A-623255"",""continent"":""Europe"",""country"":""Sweden"",""stateProvince"":""Uppland"",""county"":""Gräsö"",""locality"":""Kullbådaviken"",""decimalLatitude"":""60.3388900"",""decimalLongitude"":""18.4752800""}","{""locationDisplayLabel"":""Kullbådaviken"",""interpretedTokens"":[""Kullbådaviken""]}"
GBIF,uppsala-botany,Öregrund strand,60.3458300,18.4477800,"{""institutionCode"":""UPS"",""collectionCode"":""BOT"",""occurrenceID"":""UPS:BOT:A-623360"",""catalogNumber"":""A-623360"",""continent"":""Europe"",""country"":""Sweden"",""stateProvince"":""Uppland"",""county"":""Öregrund"",""locality"":""Öregrund strand, båtkajen"",""decimalLatitude"":""60.3458300"",""decimalLongitude"":""18.4477800""}","{""locationDisplayLabel"":""Öregrund strand"",""interpretedTokens"":[""Öregrund strand""]}"
GBIF,uppsala-botany,Öregrund strand,60.3458300,18.4477800,"{""institutionCode"":""UPS"",""collectionCode"":""BOT"",""occurrenceID"":""UPS:BOT:A-623368"",""catalogNumber"":""A-623368"",""continent"":""Europe"",""country"":""Sweden"",""stateProvince"":""Uppland"",""county"":""Öregrund"",""locality"":""Öregrund strand, båtplatsen"",""decimalLatitude"":""60.3458300"",""decimalLongitude"":""18.4477800""}","{""locationDisplayLabel"":""Öregrund strand"",""interpretedTokens"":[""Öregrund strand""]}"
GBIF,uppsala-botany,Öregrund,60.3458300,18.4477800,"{""institutionCode"":""UPS"",""collectionCode"":""BOT"",""occurrenceID"":""UPS:BOT:A-623372"",""catalogNumber"":""A-623372"",""continent"":""Europe"",""country"":""Sweden"",""stateProvince"":""Uppland"",""county"":""Öregrund"",""locality"":""S Öregrund"",""decimalLatitude"":""60.3458300"",""decimalLongitude"":""18.4477800""}","{""locationDisplayLabel"":""Öregrund"",""interpretedTokens"":[""Öregrund""]}"
GBIF,uppsala-botany,"Öregrund strand, Socisudden båtkajen",60.3458300,18.4477800,"{""institutionCode"":""UPS"",""collectionCode"":""BOT"",""occurrenceID"":""UPS:BOT:A-623373"",""catalogNumber"":""A-623373"",""continent"":""Europe"",""country"":""Sweden"",""stateProvince"":""Uppland"",""county"":""Öregrund"",""locality"":""Öregrund strand, Socisudden båtkajen"",""decimalLatitude"":""60.3458300"",""decimalLongitude"":""18.4477800""}","{""locationDisplayLabel"":""Öregrund strand, Socisudden båtkajen"",""interpretedTokens"":[""Öregrund strand"",""Socisudden båtkajen""]}"
GBIF,uppsala-botany,Öregrunds strand,60.3458300,18.4477800,"{""institutionCode"":""UPS"",""collectionCode"":""BOT"",""occurrenceID"":""UPS:BOT:A-623377"",""catalogNumber"":""A-623377"",""continent"":""Europe"",""country"":""Sweden"",""stateProvince"":""Uppland"",""county"":""Öregrund"",""locality"":""Öregrunds strand"",""decimalLatitude"":""60.3458300"",""decimalLongitude"":""18.4477800""}","{""locationDisplayLabel"":""Öregrunds strand"",""interpretedTokens"":[""Öregrunds strand""]}"
GBIF,uppsala-botany,"Öregrunds strand, Socisudden",60.3458300,18.4477800,"{""institutionCode"":""UPS"",""collectionCode"":""BOT"",""occurrenceID"":""UPS:BOT:A-623379"",""catalogNumber"":""A-623379"",""continent"":""Europe"",""country"":""Sweden"",""stateProvince"":""Uppland"",""county"":""Öregrund"",""locality"":""Öregrunds strand, Socisudden"",""decimalLatitude"":""60.3458300"",""decimalLongitude"":""18.4477800""}","{""locationDisplayLabel"":""Öregrunds strand, Socisudden"",""interpretedTokens"":[""Öregrunds strand"",""Socisudden""]}"
GBIF,uppsala-botany,"Flataklippan, Öregrunds strand",60.3458300,18.4477800,"{""institutionCode"":""UPS"",""collectionCode"":""BOT"",""occurrenceID"":""UPS:BOT:A-623383"",""catalogNumber"":""A-623383"",""continent"":""Europe"",""country"":""Sweden"",""stateProvince"":""Uppland"",""county"":""Öregrund"",""locality"":""Flataklippan, Öregrunds strand"",""decimalLatitude"":""60.3458300"",""decimalLongitude"":""18.4477800""}","{""locationDisplayLabel"":""Flataklippan, Öregrunds strand"",""interpretedTokens"":[""Flataklippan"",""Öregrunds strand""]}"
GBIF,uppsala-botany,Öregrund,60.3458300,18.4477800,"{""institutionCode"":""UPS"",""collectionCode"":""BOT"",""occurrenceID"":""UPS:BOT:A-623386"",""catalogNumber"":""A-623386"",""continent"":""Europe"",""country"":""Sweden"",""stateProvince"":""Uppland"",""county"":""Öregrund"",""locality"":""Öregrund JBS"",""decimalLatitude"":""60.3458300"",""decimalLongitude"":""18.4477800""}","{""locationDisplayLabel"":""Öregrund"",""interpretedTokens"":[""Öregrund""]}"
GBIF,uppsala-botany,"Öregrund, Sälfisket, Gällfjärden",60.4261100,18.5155600,"{""institutionCode"":""UPS"",""collectionCode"":""BOT"",""occurrenceID"":""UPS:BOT:A-623445"",""catalogNumber"":""A-623445"",""continent"":""Europe"",""country"":""Sweden"",""stateProvince"":""Uppland"",""county"":""Gräsö"",""locality"":""Öregrund, Sälfisket Gällfjärden, öns S sida"",""decimalLatitude"":""60.4261100"",""decimalLongitude"":""18.5155600""}","{""locationDisplayLabel"":""Öregrund, Sälfisket, Gällfjärden"",""interpretedTokens"":[""Öregrund"",""Sälfisket"",""Gällfjärden""]}"
GBIF,uppsala-botany,Öregrunds strand,60.3458300,18.4477800,"{""institutionCode"":""UPS"",""collectionCode"":""BOT"",""occurrenceID"":""UPS:BOT:A-623450"",""catalogNumber"":""A-623450"",""continent"":""Europe"",""country"":""Sweden"",""stateProvince"":""Uppland"",""county"":""Öregrund"",""locality"":""Öregrunds strand, J.B.S. vid brynet"",""decimalLatitude"":""60.3458300"",""decimalLongitude"":""18.4477800""}","{""locationDisplayLabel"":""Öregrunds strand"",""interpretedTokens"":[""Öregrunds strand""]}"
GBIF,uppsala-botany,Öregrund hamnen,60.3458300,18.4477800,"{""institutionCode"":""UPS"",""collectionCode"":""BOT"",""occurrenceID"":""UPS:BOT:A-623454"",""catalogNumber"":""A-623454"",""continent"":""Europe"",""country"":""Sweden"",""stateProvince"":""Uppland"",""county"":""Öregrund"",""locality"":""Öregrund hamnen"",""decimalLatitude"":""60.3458300"",""decimalLongitude"":""18.4477800""}","{""locationDisplayLabel"":""Öregrund hamnen"",""interpretedTokens"":[""Öregrund hamnen""]}"
GBIF,uppsala-botany,Öregrund,60.3458300,18.4477800,"{""institutionCode"":""UPS"",""collectionCode"":""BOT"",""occurrenceID"":""UPS:BOT:A-623485"",""catalogNumber"":""A-623485"",""continent"":""Europe"",""country"":""Sweden"",""stateProvince"":""Uppland"",""county"":""Öregrund"",""locality"":""Öregrund"",""decimalLatitude"":""60.3458300"",""decimalLongitude"":""18.4477800""}","{""locationDisplayLabel"":""Öregrund"",""interpretedTokens"":[""Öregrund""]}"
GBIF,uppsala-botany,Öregrund,60.3458300,18.4477800,"{""institutionCode"":""UPS"",""collectionCode"":""BOT"",""occurrenceID"":""UPS:BOT:A-623490"",""catalogNumber"":""A-623490"",""continent"":""Europe"",""country"":""Sweden"",""stateProvince"":""Uppland"",""county"":""Öregrund"",""locality"":""Öregrund, J.B.S"",""decimalLatitude"":""60.3458300"",""decimalLongitude"":""18.4477800""}","{""locationDisplayLabel"":""Öregrund"",""interpretedTokens"":[""Öregrund""]}"
GBIF,uppsala-botany,"Klippans paviljong, Öregrunds strand",60.3458300,18.4477800,"{""institutionCode"":""UPS"",""collectionCode"":""BOT"",""occurrenceID"":""UPS:BOT:A-623510"",""catalogNumber"":""A-623510"",""continent"":""Europe"",""country"":""Sweden"",""stateProvince"":""Uppland"",""county"":""Öregrund"",""locality"":""nedanför Klippans paviljong, Öregrunds strand"",""decimalLatitude"":""60.3458300"",""decimalLongitude"":""18.4477800""}","{""locationDisplayLabel"":""Klippans paviljong, Öregrunds strand"",""interpretedTokens"":[""Klippans paviljong"",""Öregrunds strand""]}"
GBIF,uppsala-botany,"Bonden, Berggryteklubben",58.2166700,11.3000000,"{""institutionCode"":""UPS"",""collectionCode"":""BOT"",""occurrenceID"":""UPS:BOT:A-623511"",""catalogNumber"":""A-623511"",""continent"":""Europe"",""country"":""Sweden"",""stateProvince"":""Bohuslän"",""county"":""Skaftö"",""locality"":""Bonden: östra sidan strax S om hamnen, rakt Ö om Berggryteklubben"",""decimalLatitude"":""58.2166700"",""decimalLongitude"":""11.3000000""}","{""locationDisplayLabel"":""Bonden, Berggryteklubben"",""interpretedTokens"":[""Bonden"",""Berggryteklubben""]}"
GBIF,uppsala-botany,"Rackfjärden, Hejelströmmen",60.2883300,18.4363900,"{""institutionCode"":""UPS"",""collectionCode"":""BOT"",""occurrenceID"":""UPS:BOT:A-623515"",""catalogNumber"":""A-623515"",""continent"":""Europe"",""country"":""Sweden"",""stateProvince"":""Uppland"",""county"":""Öregrund"",""locality"":""Rackfjärden, Hejelströmmen"",""decimalLatitude"":""60.2883300"",""decimalLongitude"":""18.4363900""}","{""locationDisplayLabel"":""Rackfjärden, Hejelströmmen"",""interpretedTokens"":[""Rackfjärden"",""Hejelströmmen""]}"
GBIF,uppsala-botany,Granfjärden,60.3011100,18.3361100,"{""institutionCode"":""UPS"",""collectionCode"":""BOT"",""occurrenceID"":""UPS:BOT:A-623520"",""catalogNumber"":""A-623520"",""continent"":""Europe"",""country"":""Sweden"",""stateProvince"":""Uppland"",""county"":""Östhammar"",""locality"":""Granfjärden"",""decimalLatitude"":""60.3011100"",""decimalLongitude"":""18.3361100""}","{""locationDisplayLabel"":""Granfjärden"",""interpretedTokens"":[""Granfjärden""]}"
GBIF,uppsala-botany,"Yttre, Granfjärden, Hummeldal",60.2477800,18.4183300,"{""institutionCode"":""UPS"",""collectionCode"":""BOT"",""occurrenceID"":""UPS:BOT:A-623528"",""catalogNumber"":""A-623528"",""continent"":""Europe"",""country"":""Sweden"",""stateProvince"":""Uppland"",""county"":""Östhammar"",""locality"":""Yttre Granfjärden, Hummeldal, röd prick 1.2"",""decimalLatitude"":""60.2477800"",""decimalLongitude"":""18.4183300""}","{""locationDisplayLabel"":""Yttre, Granfjärden, Hummeldal"",""interpretedTokens"":[""Yttre"",""Granfjärden"",""Hummeldal""]}"
GBIF,uppsala-botany,"Boda udde, Östhammar",60.2538900,18.3983300,"{""institutionCode"":""UPS"",""collectionCode"":""BOT"",""occurrenceID"":""UPS:BOT:A-623530"",""catalogNumber"":""A-623530"",""continent"":""Europe"",""country"":""Sweden"",""stateProvince"":""Uppland"",""county"":""Östhammar"",""locality"":""Boda udde (utanför Östhammar)"",""decimalLatitude"":""60.2538900"",""decimalLongitude"":""18.3983300""}","{""locationDisplayLabel"":""Boda udde, Östhammar"",""interpretedTokens"":[""Boda udde"",""Östhammar""]}"
GBIF,uppsala-botany,Norra Länsö,60.2386100,18.4394400,"{""institutionCode"":""UPS"",""collectionCode"":""BOT"",""occurrenceID"":""UPS:BOT:A-623534"",""catalogNumber"":""A-623534"",""continent"":""Europe"",""country"":""Sweden"",""stateProvince"":""Uppland"",""county"":""Östhammar"",""locality"":""Norra Länsö i stranden"",""decimalLatitude"":""60.2386100"",""decimalLongitude"":""18.4394400""}","{""locationDisplayLabel"":""Norra Länsö"",""interpretedTokens"":[""Norra Länsö""]}"
GBIF,uppsala-botany,Granfjärden,60.3011100,18.3361100,"{""institutionCode"":""UPS"",""collectionCode"":""BOT"",""occurrenceID"":""UPS:BOT:A-623539"",""catalogNumber"":""A-623539"",""continent"":""Europe"",""country"":""Sweden"",""stateProvince"":""Uppland"",""county"":""Börstil"",""locality"":""inre Granfjärden"",""decimalLatitude"":""60.3011100"",""decimalLongitude"":""18.3361100""}","{""locationDisplayLabel"":""Granfjärden"",""interpretedTokens"":[""Granfjärden""]}"
GBIF,uppsala-botany,Klykskär,60.2963900,18.5433300,"{""institutionCode"":""UPS"",""collectionCode"":""BOT"",""occurrenceID"":""UPS:BOT:A-623596"",""catalogNumber"":""A-623596"",""continent"":""Europe"",""country"":""Sweden"",""stateProvince"":""Uppland"",""county"":""Öregrund"",""locality"":""Klykskär"",""decimalLatitude"":""60.2963900"",""decimalLongitude"":""18.5433300""}","{""locationDisplayLabel"":""Klykskär"",""interpretedTokens"":[""Klykskär""]}"
GBIF,uppsala-botany,Sunnanöfjärden,60.3333300,18.4713900,"{""institutionCode"":""UPS"",""collectionCode"":""BOT"",""occurrenceID"":""UPS:BOT:A-623598"",""catalogNumber"":""A-623598"",""continent"":""Europe"",""country"":""Sweden"",""stateProvince"":""Uppland"",""county"":""Öregrund"",""locality"":""Sunnanöfjärden"",""decimalLatitude"":""60.3333300"",""decimalLongitude"":""18.4713900""}","{""locationDisplayLabel"":""Sunnanöfjärden"",""interpretedTokens"":[""Sunnanöfjärden""]}"
GBIF,uppsala-botany,Sunnanöfjärden,60.3333300,18.4713900,"{""institutionCode"":""UPS"",""collectionCode"":""BOT"",""occurrenceID"":""UPS:BOT:A-623601"",""catalogNumber"":""A-623601"",""continent"":""Europe"",""country"":""Sweden"",""stateProvince"":""Uppland"",""county"":null,""locality"":""Sunnanöfjärden, utanför bron"",""decimalLatitude"":""60.3333300"",""decimalLongitude"":""18.4713900""}","{""locationDisplayLabel"":""Sunnanöfjärden"",""interpretedTokens"":[""Sunnanöfjärden""]}"
GBIF,uppsala-botany,"Öregrunds skärgård, Sunnanöfjärden, Prästholmens strand",60.3333300,18.4713900,"{""institutionCode"":""UPS"",""collectionCode"":""BOT"",""occurrenceID"":""UPS:BOT:A-623602"",""catalogNumber"":""A-623602"",""continent"":""Europe"",""country"":""Sweden"",""stateProvince"":""Uppland"",""county"":null,""locality"":""Öregrunds skärgård, Sunnanöfjärden, utanför Prästholmens strand, mitt emot barnbadet"",""decimalLatitude"":""60.3333300"",""decimalLongitude"":""18.4713900""}","{""locationDisplayLabel"":""Öregrunds skärgård, Sunnanöfjärden, Prästholmens strand"",""interpretedTokens"":[""Öregrunds skärgård"",""Sunnanöfjärden"",""Prästholmens strand""]}"
GBIF,uppsala-botany,"Sunnanöfjärden, Prästholmen",60.3333300,18.4713900,"{""institutionCode"":""UPS"",""collectionCode"":""BOT"",""occurrenceID"":""UPS:BOT:A-623605"",""catalogNumber"":""A-623605"",""continent"":""Europe"",""country"":""Sweden"",""stateProvince"":""Uppland"",""county"":""Öregrund"",""locality"":""Sunnanöfjärden mitt emot Prästholmen vid stenbryggan"",""decimalLatitude"":""60.3333300"",""decimalLongitude"":""18.4713900""}","{""locationDisplayLabel"":""Sunnanöfjärden, Prästholmen"",""interpretedTokens"":[""Sunnanöfjärden"",""Prästholmen""]}"
GBIF,uppsala-botany,"Kavrebro, Kavaröbro",60.3252800,18.4350000,"{""institutionCode"":""UPS"",""collectionCode"":""BOT"",""occurrenceID"":""UPS:BOT:A-623620"",""catalogNumber"":""A-623620"",""continent"":""Europe"",""country"":""Sweden"",""stateProvince"":""Uppland"",""county"":""Öregrund"",""locality"":""Kavrebro [Kavaröbro]"",""decimalLatitude"":""60.3252800"",""decimalLongitude"":""18.4350000""}","{""locationDisplayLabel"":""Kavrebro, Kavaröbro"",""interpretedTokens"":[""Kavrebro"",""Kavaröbro""]}"
GBIF,uppsala-botany,Sunnanöfjärden,60.3191700,18.4508300,"{""institutionCode"":""UPS"",""collectionCode"":""BOT"",""occurrenceID"":""UPS:BOT:A-623622"",""catalogNumber"":""A-623622"",""continent"":""Europe"",""country"":""Sweden"",""stateProvince"":""Uppland"",""county"":""Öregrund"",""locality"":""Sunnanöfjärden, badstället"",""decimalLatitude"":""60.3191700"",""decimalLongitude"":""18.4508300""}","{""locationDisplayLabel"":""Sunnanöfjärden"",""interpretedTokens"":[""Sunnanöfjärden""]}"
GBIF,uppsala-botany,"Ersholmen, Storviken",60.2780600,18.5383300,"{""institutionCode"":""UPS"",""collectionCode"":""BOT"",""occurrenceID"":""UPS:BOT:A-623639"",""catalogNumber"":""A-623639"",""continent"":""Europe"",""country"":""Sweden"",""stateProvince"":""Uppland"",""county"":""Öregrund"",""locality"":""Ersholmen: Storviken"",""decimalLatitude"":""60.2780600"",""decimalLongitude"":""18.5383300""}","{""locationDisplayLabel"":""Ersholmen, Storviken"",""interpretedTokens"":[""Ersholmen"",""Storviken""]}"
GBIF,uppsala-botany,Ersholmsfladan,60.2780600,18.5383300,"{""institutionCode"":""UPS"",""collectionCode"":""BOT"",""occurrenceID"":""UPS:BOT:A-623640"",""catalogNumber"":""A-623640"",""continent"":""Europe"",""country"":""Sweden"",""stateProvince"":""Uppland"",""county"":""Öregrund"",""locality"":""mellersta Ersholmsfladan"",""decimalLatitude"":""60.2780600"",""decimalLongitude"":""18.5383300""}","{""locationDisplayLabel"":""Ersholmsfladan"",""interpretedTokens"":[""Ersholmsfladan""]}"
GBIF,uppsala-botany,Ersholmsfladan,60.2780600,18.5383300,"{""institutionCode"":""UPS"",""collectionCode"":""BOT"",""occurrenceID"":""UPS:BOT:A-623642"",""catalogNumber"":""A-623642"",""continent"":""Europe"",""country"":""Sweden"",""stateProvince"":""Uppland"",""county"":""Öregrund"",""locality"":""mellersta Ersholmsfladan, längre ut"",""decimalLatitude"":""60.2780600"",""decimalLongitude"":""18.5383300""}","{""locationDisplayLabel"":""Ersholmsfladan"",""interpretedTokens"":[""Ersholmsfladan""]}"
GBIF,uppsala-botany,"Storströmmen-Rävsten, Tuppargränd",60.2752800,18.5186100,"{""institutionCode"":""UPS"",""collectionCode"":""BOT"",""occurrenceID"":""UPS:BOT:A-623644"",""catalogNumber"":""A-623644"",""continent"":""Europe"",""country"":""Sweden"",""stateProvince"":""Uppland"",""county"":""Gräsö"",""locality"":""Storströmmen-Rävsten, Tuppargränd"",""decimalLatitude"":""60.2752800"",""decimalLongitude"":""18.5186100""}","{""locationDisplayLabel"":""Storströmmen-Rävsten, Tuppargränd"",""interpretedTokens"":[""Storströmmen-Rävsten"",""Tuppargränd""]}"
GBIF,uppsala-botany,"Spärra, Storströmmen",60.2794400,18.4975000,"{""institutionCode"":""UPS"",""collectionCode"":""BOT"",""occurrenceID"":""UPS:BOT:A-623647"",""catalogNumber"":""A-623647"",""continent"":""Europe"",""country"":""Sweden"",""stateProvince"":""Uppland"",""county"":""Börstil"",""locality"":""Spärra utanför Storströmmen"",""decimalLatitude"":""60.2794400"",""decimalLongitude"":""18.4975000""}","{""locationDisplayLabel"":""Spärra, Storströmmen"",""interpretedTokens"":[""Spärra"",""Storströmmen""]}"
GBIF,uppsala-botany,"Öregrunds skärgård, Storströmmen",60.2794400,18.4975000,"{""institutionCode"":""UPS"",""collectionCode"":""BOT"",""occurrenceID"":""UPS:BOT:A-623648"",""catalogNumber"":""A-623648"",""continent"":""Europe"",""country"":""Sweden"",""stateProvince"":""Uppland"",""county"":""Börstil"",""locality"":""Öregrunds skärgård, utanför Storströmmen"",""decimalLatitude"":""60.2794400"",""decimalLongitude"":""18.4975000""}","{""locationDisplayLabel"":""Öregrunds skärgård, Storströmmen"",""interpretedTokens"":[""Öregrunds skärgård"",""Storströmmen""]}"
GBIF,uppsala-botany,Bodskär,60.2844400,18.7025000,"{""institutionCode"":""UPS"",""collectionCode"":""BOT"",""occurrenceID"":""UPS:BOT:A-623652"",""catalogNumber"":""A-623652"",""continent"":""Europe"",""country"":""Sweden"",""stateProvince"":""Uppland"",""county"":""Öregrund"",""locality"":""Bodskär innerviken grunt"",""decimalLatitude"":""60.2844400"",""decimalLongitude"":""18.7025000""}","{""locationDisplayLabel"":""Bodskär"",""interpretedTokens"":[""Bodskär""]}"
GBIF,uppsala-botany,Bodskär,60.2844400,18.7025000,"{""institutionCode"":""UPS"",""collectionCode"":""BOT"",""occurrenceID"":""UPS:BOT:A-623653"",""catalogNumber"":""A-623653"",""continent"":""Europe"",""country"":""Sweden"",""stateProvince"":""Uppland"",""county"":""Öregrund"",""locality"":""Bodskär"",""decimalLatitude"":""60.2844400"",""decimalLongitude"":""18.7025000""}","{""locationDisplayLabel"":""Bodskär"",""interpretedTokens"":[""Bodskär""]}"
GBIF,uppsala-botany,Högstensviken,60.3100000,18.6369400,"{""institutionCode"":""UPS"",""collectionCode"":""BOT"",""occurrenceID"":""UPS:BOT:A-623656"",""catalogNumber"":""A-623656"",""continent"":""Europe"",""country"":""Sweden"",""stateProvince"":""Uppland"",""county"":""Gräsö"",""locality"":""Högstensviken"",""decimalLatitude"":""60.3100000"",""decimalLongitude"":""18.6369400""}","{""locationDisplayLabel"":""Högstensviken"",""interpretedTokens"":[""Högstensviken""]}"
GBIF,uppsala-botany,Lövskalmen,60.3100000,18.6369400,"{""institutionCode"":""UPS"",""collectionCode"":""BOT"",""occurrenceID"":""UPS:BOT:A-623659"",""catalogNumber"":""A-623659"",""continent"":""Europe"",""country"":""Sweden"",""stateProvince"":""Uppland"",""county"":""Öregrund"",""locality"":""Lövskalmen"",""decimalLatitude"":""60.3100000"",""decimalLongitude"":""18.6369400""}","{""locationDisplayLabel"":""Lövskalmen"",""interpretedTokens"":[""Lövskalmen""]}"
GBIF,uppsala-botany,"Lilla Risten, Gammelboörarna",60.3408300,18.5952800,"{""institutionCode"":""UPS"",""collectionCode"":""BOT"",""occurrenceID"":""UPS:BOT:A-623664"",""catalogNumber"":""A-623664"",""continent"":""Europe"",""country"":""Sweden"",""stateProvince"":""Uppland"",""county"":null,""locality"":""Lilla Risten, Gammelboörarna"",""decimalLatitude"":""60.3408300"",""decimalLongitude"":""18.5952800""}","{""locationDisplayLabel"":""Lilla Risten, Gammelboörarna"",""interpretedTokens"":[""Lilla Risten"",""Gammelboörarna""]}"
GBIF,uppsala-botany,Storströmmen,60.2794400,18.4975000,"{""institutionCode"":""UPS"",""collectionCode"":""BOT"",""occurrenceID"":""UPS:BOT:A-623673"",""catalogNumber"":""A-623673"",""continent"":""Europe"",""country"":""Sweden"",""stateProvince"":""Uppland"",""county"":""Börstil"",""locality"":""Storströmmen"",""decimalLatitude"":""60.2794400"",""decimalLongitude"":""18.4975000""}","{""locationDisplayLabel"":""Storströmmen"",""interpretedTokens"":[""Storströmmen""]}"
GBIF,uppsala-botany,Djursten,60.3697200,18.4038900,"{""institutionCode"":""UPS"",""collectionCode"":""BOT"",""occurrenceID"":""UPS:BOT:A-623700"",""catalogNumber"":""A-623700"",""continent"":""Europe"",""country"":""Sweden"",""stateProvince"":""Uppland"",""county"":""Gräsö"",""locality"":""N om Djursten"",""decimalLatitude"":""60.3697200"",""decimalLongitude"":""18.4038900""}","{""locationDisplayLabel"":""Djursten"",""interpretedTokens"":[""Djursten""]}"
GBIF,uppsala-botany,"Väster, Mörtarö",60.4286100,18.4058300,"{""institutionCode"":""UPS"",""collectionCode"":""BOT"",""occurrenceID"":""UPS:BOT:A-623706"",""catalogNumber"":""A-623706"",""continent"":""Europe"",""country"":""Sweden"",""stateProvince"":""Uppland"",""county"":""Gräsö"",""locality"":""Väster Mörtarö"",""decimalLatitude"":""60.4286100"",""decimalLongitude"":""18.4058300""}","{""locationDisplayLabel"":""Väster, Mörtarö"",""interpretedTokens"":[""Väster"",""Mörtarö""]}"
GBIF,uppsala-botany,"Räfsten, Rävsten, Fucus, Chara",60.3125000,18.5991700,"{""institutionCode"":""UPS"",""collectionCode"":""BOT"",""occurrenceID"":""UPS:BOT:A-623720"",""catalogNumber"":""A-623720"",""continent"":""Europe"",""country"":""Sweden"",""stateProvince"":""Uppland"",""county"":""Gräsö"",""locality"":""Räfsten [Rävsten], gamla lokalen med lösliggande Fucus i Chara"",""decimalLatitude"":""60.3125000"",""decimalLongitude"":""18.5991700""}","{""locationDisplayLabel"":""Rävsten, Fucus, Chara"",""interpretedTokens"":[""Räfsten"",""Rävsten"",""Fucus"",""Chara""]}"
GBIF,uppsala-botany,"Räfsten, Rävsten, Fucus, Chara",60.3125000,18.5991700,"{""institutionCode"":""UPS"",""collectionCode"":""BOT"",""occurrenceID"":""UPS:BOT:A-623722"",""catalogNumber"":""A-623722"",""continent"":""Europe"",""country"":""Sweden"",""stateProvince"":""Uppland"",""county"":""Gräsö"",""locality"":""Räfsten [Rävsten], gamla lokalen för lösliggande Fucus i Chara"",""decimalLatitude"":""60.3125000"",""decimalLongitude"":""18.5991700""}","{""locationDisplayLabel"":""Rävsten, Fucus, Chara"",""interpretedTokens"":[""Räfsten"",""Rävsten"",""Fucus"",""Chara""]}"
GBIF,uppsala-botany,"Räfsten, Rävsten",60.3125000,18.5991700,"{""institutionCode"":""UPS"",""collectionCode"":""BOT"",""occurrenceID"":""UPS:BOT:A-623724"",""catalogNumber"":""A-623724"",""continent"":""Europe"",""country"":""Sweden"",""stateProvince"":""Uppland"",""county"":""Gräsö"",""locality"":""Räfsten [Rävsten]"",""decimalLatitude"":""60.3125000"",""decimalLongitude"":""18.5991700""}","{""locationDisplayLabel"":""Räfsten, Rävsten"",""interpretedTokens"":[""Räfsten"",""Rävsten""]}"
GBIF,uppsala-botany,"Gulleråsen, Sanden",61.0677800,15.1888900,"{""institutionCode"":""UPS"",""collectionCode"":""BOT"",""occurrenceID"":""UPS:BOT:A-623822"",""catalogNumber"":""A-623822"",""continent"":""Europe"",""country"":""Sweden"",""stateProvince"":""Dalarna"",""county"":""Boda"",""locality"":""Gulleråsen Sanden"",""decimalLatitude"":""61.0677800"",""decimalLongitude"":""15.1888900""}","{""locationDisplayLabel"":""Gulleråsen, Sanden"",""interpretedTokens"":[""Gulleråsen"",""Sanden""]}"
GBIF,uppsala-botany,Olandsån,60.3300000,18.2405600,"{""institutionCode"":""UPS"",""collectionCode"":""BOT"",""occurrenceID"":""UPS:BOT:A-624012"",""catalogNumber"":""A-624012"",""continent"":""Europe"",""country"":""Sweden"",""stateProvince"":""Uppland"",""county"":""Öregrund"",""locality"":""Olandsån"",""decimalLatitude"":""60.3300000"",""decimalLongitude"":""18.2405600""}","{""locationDisplayLabel"":""Olandsån"",""interpretedTokens"":[""Olandsån""]}"
GBIF,uppsala-botany,"Gåsstens, Viten, Chara",60.2033300,18.7861100,"{""institutionCode"":""UPS"",""collectionCode"":""BOT"",""occurrenceID"":""UPS:BOT:A-626637"",""catalogNumber"":""A-626637"",""continent"":""Europe"",""country"":""Sweden"",""stateProvince"":""Uppland"",""county"":""Gräsö"",""locality"":""Gåsstens Viten, vid randen av Chara dammen"",""decimalLatitude"":""60.2033300"",""decimalLongitude"":""18.7861100""}","{""locationDisplayLabel"":""Gåsstens, Viten, Chara"",""interpretedTokens"":[""Gåsstens"",""Viten"",""Chara""]}"
GBIF,uppsala-botany,Norrkohammar,60.3936100,18.6586100,"{""institutionCode"":""UPS"",""collectionCode"":""BOT"",""occurrenceID"":""UPS:BOT:A-626644"",""catalogNumber"":""A-626644"",""continent"":""Europe"",""country"":""Sweden"",""stateProvince"":""Uppland"",""county"":""Öregrund"",""locality"":""Norrkohammar"",""decimalLatitude"":""60.3936100"",""decimalLongitude"":""18.6586100""}","{""locationDisplayLabel"":""Norrkohammar"",""interpretedTokens"":[""Norrkohammar""]}"
GBIF,uppsala-botany,"Höga, Skarbådan",60.3450000,18.4075000,"{""institutionCode"":""UPS"",""collectionCode"":""BOT"",""occurrenceID"":""UPS:BOT:A-626653"",""catalogNumber"":""A-626653"",""continent"":""Europe"",""country"":""Sweden"",""stateProvince"":""Uppland"",""county"":""Öregrund"",""locality"":""Höga Skarbådan"",""decimalLatitude"":""60.3450000"",""decimalLongitude"":""18.4075000""}","{""locationDisplayLabel"":""Höga, Skarbådan"",""interpretedTokens"":[""Höga"",""Skarbådan""]}"
GBIF,uppsala-botany,Örskärsund,60.5013900,18.3919400,"{""institutionCode"":""UPS"",""collectionCode"":""BOT"",""occurrenceID"":""UPS:BOT:A-626661"",""catalogNumber"":""A-626661"",""continent"":""Europe"",""country"":""Sweden"",""stateProvince"":""Uppland"",""county"":""Gräsö"",""locality"":""Örskärsund"",""decimalLatitude"":""60.5013900"",""decimalLongitude"":""18.3919400""}","{""locationDisplayLabel"":""Örskärsund"",""interpretedTokens"":[""Örskärsund""]}"
GBIF,uppsala-botany,Tollingen,60.3680600,18.6430600,"{""institutionCode"":""UPS"",""collectionCode"":""BOT"",""occurrenceID"":""UPS:BOT:A-626663"",""catalogNumber"":""A-626663"",""continent"":""Europe"",""country"":""Sweden"",""stateProvince"":""Uppland"",""county"":""Gräsö"",""locality"":""Tollingen"",""decimalLatitude"":""60.3680600"",""decimalLongitude"":""18.6430600""}","{""locationDisplayLabel"":""Tollingen"",""interpretedTokens"":[""Tollingen""]}"
GBIF,uppsala-botany,Norrko,60.3936100,18.6586100,"{""institutionCode"":""UPS"",""collectionCode"":""BOT"",""occurrenceID"":""UPS:BOT:A-626672"",""catalogNumber"":""A-626672"",""continent"":""Europe"",""country"":""Sweden"",""stateProvince"":""Uppland"",""county"":""Gräsö"",""locality"":""Norrko"",""decimalLatitude"":""60.3936100"",""decimalLongitude"":""18.6586100""}","{""locationDisplayLabel"":""Norrko"",""interpretedTokens"":[""Norrko""]}"
GBIF,uppsala-botany,Kallrigafjärden,60.3697200,18.2955600,"{""institutionCode"":""UPS"",""collectionCode"":""BOT"",""occurrenceID"":""UPS:BOT:A-626676"",""catalogNumber"":""A-626676"",""continent"":""Europe"",""country"":""Sweden"",""stateProvince"":""Uppland"",""county"":""Öregrund"",""locality"":""Kallrigafjärden"",""decimalLatitude"":""60.3697200"",""decimalLongitude"":""18.2955600""}","{""locationDisplayLabel"":""Kallrigafjärden"",""interpretedTokens"":[""Kallrigafjärden""]}"
GBIF,uppsala-botany,Västermörtarö,60.4286100,18.4058300,"{""institutionCode"":""UPS"",""collectionCode"":""BOT"",""occurrenceID"":""UPS:BOT:A-626716"",""catalogNumber"":""A-626716"",""continent"":""Europe"",""country"":""Sweden"",""stateProvince"":""Uppland"",""county"":""Gräsö"",""locality"":""Västermörtarö"",""decimalLatitude"":""60.4286100"",""decimalLongitude"":""18.4058300""}","{""locationDisplayLabel"":""Västermörtarö"",""interpretedTokens"":[""Västermörtarö""]}"
GBIF,uppsala-botany,Öregrund,60.3413900,18.4500000,"{""institutionCode"":""UPS"",""collectionCode"":""BOT"",""occurrenceID"":""UPS:BOT:A-626728"",""catalogNumber"":""A-626728"",""continent"":""Europe"",""country"":""Sweden"",""stateProvince"":""Uppland"",""county"":""Öregrund"",""locality"":""Öregrund"",""decimalLatitude"":""60.3413900"",""decimalLongitude"":""18.4500000""}","{""locationDisplayLabel"":""Öregrund"",""interpretedTokens"":[""Öregrund""]}"
GBIF,uppsala-botany,"Västerhällan, Djursten",60.3697200,18.4038900,"{""institutionCode"":""UPS"",""collectionCode"":""BOT"",""occurrenceID"":""UPS:BOT:A-626730"",""catalogNumber"":""A-626730"",""continent"":""Europe"",""country"":""Sweden"",""stateProvince"":""Uppland"",""county"":""Gräsö"",""locality"":""Västerhällan utanför Djursten"",""decimalLatitude"":""60.3697200"",""decimalLongitude"":""18.4038900""}","{""locationDisplayLabel"":""Västerhällan, Djursten"",""interpretedTokens"":[""Västerhällan"",""Djursten""]}"
GBIF,uppsala-botany,"Helgagrund, Måsboda",60.4113900,18.3955600,"{""institutionCode"":""UPS"",""collectionCode"":""BOT"",""occurrenceID"":""UPS:BOT:A-626746"",""catalogNumber"":""A-626746"",""continent"":""Europe"",""country"":""Sweden"",""stateProvince"":""Uppland"",""county"":""Gräsö"",""locality"":""Helgagrund [utanför Måsboda]"",""decimalLatitude"":""60.4113900"",""decimalLongitude"":""18.3955600""}","{""locationDisplayLabel"":""Helgagrund, Måsboda"",""interpretedTokens"":[""Helgagrund"",""Måsboda""]}"
GBIF,uppsala-botany,Långviks inre,60.3630600,18.4269400,"{""institutionCode"":""UPS"",""collectionCode"":""BOT"",""occurrenceID"":""UPS:BOT:A-626771"",""catalogNumber"":""A-626771"",""continent"":""Europe"",""country"":""Sweden"",""stateProvince"":""Uppland"",""county"":""Gräsö"",""locality"":""Långviks inre vik"",""decimalLatitude"":""60.3630600"",""decimalLongitude"":""18.4269400""}","{""locationDisplayLabel"":""Långviks inre"",""interpretedTokens"":[""Långviks inre""]}"
GBIF,uppsala-botany,Långvik,60.3630600,18.4269400,"{""institutionCode"":""UPS"",""collectionCode"":""BOT"",""occurrenceID"":""UPS:BOT:A-626772"",""catalogNumber"":""A-626772"",""continent"":""Europe"",""country"":""Sweden"",""stateProvince"":""Uppland"",""county"":""Gräsö"",""locality"":""Långvik"",""decimalLatitude"":""60.3630600"",""decimalLongitude"":""18.4269400""}","{""locationDisplayLabel"":""Långvik"",""interpretedTokens"":[""Långvik""]}"
GBIF,uppsala-botany,Högsten,60.3100000,18.6369400,"{""institutionCode"":""UPS"",""collectionCode"":""BOT"",""occurrenceID"":""UPS:BOT:A-626805"",""catalogNumber"":""A-626805"",""continent"":""Europe"",""country"":""Sweden"",""stateProvince"":""Uppland"",""county"":""Gräsö"",""locality"":""Högsten"",""decimalLatitude"":""60.3100000"",""decimalLongitude"":""18.6369400""}","{""locationDisplayLabel"":""Högsten"",""interpretedTokens"":[""Högsten""]}"
GBIF,uppsala-botany,Skeppshällan,60.3252800,18.4850000,"{""institutionCode"":""UPS"",""collectionCode"":""BOT"",""occurrenceID"":""UPS:BOT:A-626822"",""catalogNumber"":""A-626822"",""continent"":""Europe"",""country"":""Sweden"",""stateProvince"":""Uppland"",""county"":""Gräsö"",""locality"":""Skeppshällan"",""decimalLatitude"":""60.3252800"",""decimalLongitude"":""18.4850000""}","{""locationDisplayLabel"":""Skeppshällan"",""interpretedTokens"":[""Skeppshällan""]}"
GBIF,uppsala-botany,"Svartfluttu, Stenviken, Fluttuskär",60.4747200,18.5102800,"{""institutionCode"":""UPS"",""collectionCode"":""BOT"",""occurrenceID"":""UPS:BOT:A-626847"",""catalogNumber"":""A-626847"",""continent"":""Europe"",""country"":""Sweden"",""stateProvince"":""Uppland"",""county"":""Gräsö"",""locality"":""Svartfluttu å Stenviken mot Fluttuskär"",""decimalLatitude"":""60.4747200"",""decimalLongitude"":""18.5102800""}","{""locationDisplayLabel"":""Svartfluttu, Stenviken, Fluttuskär"",""interpretedTokens"":[""Svartfluttu"",""Stenviken"",""Fluttuskär""]}"
GBIF,uppsala-botany,"Stenkobbsgrund-Morsken, Stora Möja, Lökskär",59.4500000,18.9780600,"{""institutionCode"":""UPS"",""collectionCode"":""BOT"",""occurrenceID"":""UPS:BOT:A-626989"",""catalogNumber"":""A-626989"",""continent"":""Europe"",""country"":""Sweden"",""stateProvince"":""Södermanland"",""county"":""Ornö"",""locality"":""Stenkobbsgrund-Morsken NO Stora Möja utanför Lökskär"",""decimalLatitude"":""59.4500000"",""decimalLongitude"":""18.9780600""}","{""locationDisplayLabel"":""Stenkobbsgrund-Morsken, Stora Möja, Lökskär"",""interpretedTokens"":[""Stenkobbsgrund-Morsken"",""Stora Möja"",""Lökskär""]}"
GBIF,uppsala-botany,"Västerskärs, Kubben, Hållskäret",60.2283300,18.8816700,"{""institutionCode"":""UPS"",""collectionCode"":""BOT"",""occurrenceID"":""UPS:BOT:A-626991"",""catalogNumber"":""A-626991"",""continent"":""Europe"",""country"":""Sweden"",""stateProvince"":""Uppland"",""county"":""Singö"",""locality"":""Västerskärs Kubben (Hållskäret)"",""decimalLatitude"":""60.2283300"",""decimalLongitude"":""18.8816700""}","{""locationDisplayLabel"":""Västerskärs, Kubben, Hållskäret"",""interpretedTokens"":[""Västerskärs"",""Kubben"",""Hållskäret""]}"
GBIF,uppsala-botany,Bodaskär,60.2891700,18.7008300,"{""institutionCode"":""UPS"",""collectionCode"":""BOT"",""occurrenceID"":""UPS:BOT:A-626993"",""catalogNumber"":""A-626993"",""continent"":""Europe"",""country"":""Sweden"",""stateProvince"":""Uppland"",""county"":""Gräsö"",""locality"":""Bodaskär innervik"",""decimalLatitude"":""60.2891700"",""decimalLongitude"":""18.7008300""}","{""locationDisplayLabel"":""Bodaskär"",""interpretedTokens"":[""Bodaskär""]}"
GBIF,uppsala-botany,"Norrko, Sälskrubba",60.3936100,18.6586100,"{""institutionCode"":""UPS"",""collectionCode"":""BOT"",""occurrenceID"":""UPS:BOT:A-626994"",""catalogNumber"":""A-626994"",""continent"":""Europe"",""country"":""Sweden"",""stateProvince"":""Uppland"",""county"":""Gräsö"",""locality"":""Norrko, Sälskrubba, längst in"",""decimalLatitude"":""60.3936100"",""decimalLongitude"":""18.6586100""}","{""locationDisplayLabel"":""Norrko, Sälskrubba"",""interpretedTokens"":[""Norrko"",""Sälskrubba""]}"
GBIF,uppsala-botany,Oxsten,60.3736100,18.4858300,"{""institutionCode"":""UPS"",""collectionCode"":""BOT"",""occurrenceID"":""UPS:BOT:A-626995"",""catalogNumber"":""A-626995"",""continent"":""Europe"",""country"":""Sweden"",""stateProvince"":""Uppland"",""county"":""Gräsö"",""locality"":""Oxsten"",""decimalLatitude"":""60.3736100"",""decimalLongitude"":""18.4858300""}","{""locationDisplayLabel"":""Oxsten"",""interpretedTokens"":[""Oxsten""]}"
GBIF,uppsala-botany,Västermörtarö,60.4305600,18.3977800,"{""institutionCode"":""UPS"",""collectionCode"":""BOT"",""occurrenceID"":""UPS:BOT:A-626996"",""catalogNumber"":""A-626996"",""continent"":""Europe"",""country"":""Sweden"",""stateProvince"":""Uppland"",""county"":""Gräsö"",""locality"":""Västermörtarö"",""decimalLatitude"":""60.4305600"",""decimalLongitude"":""18.3977800""}","{""locationDisplayLabel"":""Västermörtarö"",""interpretedTokens"":[""Västermörtarö""]}"
GBIF,uppsala-botany,Svartklubbens hamn,60.1797200,18.8313900,"{""institutionCode"":""UPS"",""collectionCode"":""BOT"",""occurrenceID"":""UPS:BOT:A-626997"",""catalogNumber"":""A-626997"",""continent"":""Europe"",""country"":""Sweden"",""stateProvince"":""Uppland"",""county"":""Gräsö"",""locality"":""Svartklubbens hamn"",""decimalLatitude"":""60.1797200"",""decimalLongitude"":""18.8313900""}","{""locationDisplayLabel"":""Svartklubbens hamn"",""interpretedTokens"":[""Svartklubbens hamn""]}"
GBIF,uppsala-botany,Tistronön sundet,60.2966700,18.6630600,"{""institutionCode"":""UPS"",""collectionCode"":""BOT"",""occurrenceID"":""UPS:BOT:A-626998"",""catalogNumber"":""A-626998"",""continent"":""Europe"",""country"":""Sweden"",""stateProvince"":""Uppland"",""county"":""Gräsö"",""locality"":""Tistronön sundet"",""decimalLatitude"":""60.2966700"",""decimalLongitude"":""18.6630600""}","{""locationDisplayLabel"":""Tistronön sundet"",""interpretedTokens"":[""Tistronön sundet""]}"
GBIF,uppsala-botany,"Norrko, Sälskrubban",60.3936100,18.6586100,"{""institutionCode"":""UPS"",""collectionCode"":""BOT"",""occurrenceID"":""UPS:BOT:A-626999"",""catalogNumber"":""A-626999"",""continent"":""Europe"",""country"":""Sweden"",""stateProvince"":""Uppland"",""county"":""Gräsö"",""locality"":""Norrko, Sälskrubban"",""decimalLatitude"":""60.3936100"",""decimalLongitude"":""18.6586100""}","{""locationDisplayLabel"":""Norrko, Sälskrubban"",""interpretedTokens"":[""Norrko"",""Sälskrubban""]}"
GBIF,uppsala-botany,"Öregrunds skärgård, Olandsåns mynning",60.3300000,18.2405600,"{""institutionCode"":""UPS"",""collectionCode"":""BOT"",""occurrenceID"":""UPS:BOT:A-627001"",""catalogNumber"":""A-627001"",""continent"":""Europe"",""country"":""Sweden"",""stateProvince"":""Uppland"",""county"":""Gräsö"",""locality"":""Öregrunds skärgård, i Olandsåns mynning"",""decimalLatitude"":""60.3300000"",""decimalLongitude"":""18.2405600""}","{""locationDisplayLabel"":""Öregrunds skärgård, Olandsåns mynning"",""interpretedTokens"":[""Öregrunds skärgård"",""Olandsåns mynning""]}"
